$GPGGA,144749,5926.1063,N,02450.1351,E,1,12,0.7,43.5,M,17.0,M,,*70
$GPGGA,144751,5926.1062,N,02450.1356,E,1,12,0.8,43.1,M,17.0,M,,*74
$GPGGA,144753,5926.1063,N,02450.1359,E,1,12,0.8,43.0,M,17.0,M,,*79
$GPGGA,144755,5926.1065,N,02450.1360,E,1,12,0.8,43.1,M,17.0,M,,*72
$GPGGA,144757,5926.1068,N,02450.1359,E,1,12,0.8,43.5,M,17.0,M,,*73
$GPGGA,144759,5926.1069,N,02450.1356,E,1,12,0.8,43.8,M,17.0,M,,*7E
$GPGGA,144801,5926.1069,N,02450.1354,E,1,12,0.7,44.2,M,17.0,M,,*7C
$GPGGA,144803,5926.1070,N,02450.1354,E,1,12,0.7,44.6,M,17.0,M,,*72
$GPGGA,144805,5926.1071,N,02450.1350,E,1,12,0.7,45.0,M,17.0,M,,*76
$GPGGA,144807,5926.1071,N,02450.1348,E,1,12,0.7,45.4,M,17.0,M,,*79
$GPGGA,144809,5926.1070,N,02450.1346,E,1,12,0.7,45.8,M,17.0,M,,*74
$GPGGA,144811,5926.1070,N,02450.1345,E,1,12,0.7,45.8,M,17.0,M,,*7E
$GPGGA,144813,5926.1071,N,02450.1345,E,1,12,0.7,45.9,M,17.0,M,,*7C
$GPGGA,144815,5926.1072,N,02450.1348,E,1,12,0.7,46.1,M,17.0,M,,*7F
$GPGGA,144817,5926.1072,N,02450.1350,E,1,12,0.7,46.3,M,17.0,M,,*76
$GPGGA,144819,5926.1072,N,02450.1353,E,1,12,0.7,46.5,M,17.0,M,,*7D
$GPGGA,144821,5926.1072,N,02450.1356,E,1,12,0.8,46.2,M,17.0,M,,*7B
$GPGGA,144823,5926.1073,N,02450.1359,E,1,12,0.8,46.1,M,17.0,M,,*74
$GPGGA,144825,5926.1074,N,02450.1361,E,1,12,0.8,46.1,M,17.0,M,,*7E
$GPGGA,144827,5926.1074,N,02450.1361,E,1,12,0.8,46.1,M,17.0,M,,*7C
$GPGGA,144829,5926.1073,N,02450.1360,E,1,12,0.8,46.2,M,17.0,M,,*77
$GPGGA,144831,5926.1073,N,02450.1359,E,1,12,0.8,45.9,M,17.0,M,,*7C
$GPGGA,144833,5926.1073,N,02450.1360,E,1,12,0.8,45.6,M,17.0,M,,*7B
$GPGGA,144835,5926.1073,N,02450.1361,E,1,12,0.7,45.5,M,17.0,M,,*70
$GPGGA,144838,5926.1072,N,02450.1364,E,1,12,0.7,45.4,M,17.0,M,,*78
$GPGGA,144840,5926.1071,N,02450.1365,E,1,12,0.7,45.6,M,17.0,M,,*77
$GPGGA,144842,5926.1072,N,02450.1366,E,1,12,0.7,45.4,M,17.0,M,,*77
$GPGGA,144844,5926.1072,N,02450.1367,E,1,12,0.7,45.3,M,17.0,M,,*77
$GPGGA,144846,5926.1073,N,02450.1368,E,1,12,0.7,45.2,M,17.0,M,,*7A
$GPGGA,144848,5926.1072,N,02450.1365,E,1,12,0.7,45.1,M,17.0,M,,*7B
$GPGGA,144850,5926.1070,N,02450.1365,E,1,12,0.8,45.2,M,17.0,M,,*7C
$GPGGA,144852,5926.1069,N,02450.1365,E,1,12,0.8,45.1,M,17.0,M,,*75
$GPGGA,144854,5926.1069,N,02450.1364,E,1,12,0.7,45.0,M,17.0,M,,*7C
$GPGGA,144856,5926.1070,N,02450.1365,E,1,12,0.7,45.0,M,17.0,M,,*77
$GPGGA,144858,5926.1069,N,02450.1364,E,1,12,0.7,45.2,M,17.0,M,,*72
$GPGGA,144901,5926.1070,N,02450.1358,E,1,12,0.7,45.5,M,17.0,M,,*7F
$GPGGA,144903,5926.1071,N,02450.1354,E,1,12,0.7,45.8,M,17.0,M,,*7D
$GPGGA,144905,5926.1072,N,02450.1352,E,1,12,0.7,45.5,M,17.0,M,,*73
$GPGGA,144907,5926.1072,N,02450.1352,E,1,12,0.7,45.2,M,17.0,M,,*76
$GPGGA,144909,5926.1072,N,02450.1354,E,1,12,0.7,45.3,M,17.0,M,,*7F
$GPGGA,144911,5926.1073,N,02450.1353,E,1,12,0.7,45.5,M,17.0,M,,*76
$GPGGA,144913,5926.1074,N,02450.1349,E,1,12,0.7,45.7,M,17.0,M,,*7A
$GPGGA,144915,5926.1074,N,02450.1347,E,1,12,0.7,45.5,M,17.0,M,,*70
$GPGGA,144917,5926.1074,N,02450.1348,E,1,12,0.7,45.5,M,17.0,M,,*7D
$GPGGA,144919,5926.1073,N,02450.1347,E,1,12,0.7,45.5,M,17.0,M,,*7B
$GPGGA,144921,5926.1072,N,02450.1352,E,1,12,0.7,45.6,M,17.0,M,,*76
$GPGGA,144924,5926.1071,N,02450.1356,E,1,12,0.7,45.7,M,17.0,M,,*75
$GPGGA,144926,5926.1070,N,02450.1360,E,1,12,0.7,45.5,M,17.0,M,,*71
$GPGGA,144928,5926.1069,N,02450.1363,E,1,12,0.7,45.6,M,17.0,M,,*77
$GPGGA,144930,5926.1068,N,02450.1361,E,1,12,0.8,45.9,M,17.0,M,,*7D
$GPGGA,144932,5926.1069,N,02450.1361,E,1,12,0.8,46.4,M,17.0,M,,*70
$GPGGA,144934,5926.1069,N,02450.1360,E,1,12,0.8,46.9,M,17.0,M,,*7A
$GPGGA,144937,5926.1069,N,02450.1362,E,1,12,0.8,47.0,M,17.0,M,,*73
$GPGGA,144939,5926.1069,N,02450.1364,E,1,12,0.8,47.4,M,17.0,M,,*7F
$GPGGA,144941,5926.1070,N,02450.1367,E,1,12,0.8,47.8,M,17.0,M,,*77
$GPGGA,144943,5926.1071,N,02450.1369,E,1,12,0.8,48.4,M,17.0,M,,*79
$GPGGA,144945,5926.1072,N,02450.1375,E,1,12,0.8,49.3,M,17.0,M,,*77
$GPGGA,144948,5926.1071,N,02450.1388,E,1,12,0.7,49.2,M,17.0,M,,*75
$GPGGA,144950,5926.1070,N,02450.1393,E,1,12,0.7,49.2,M,17.0,M,,*77
$GPGGA,144952,5926.1070,N,02450.1396,E,1,12,0.7,49.2,M,17.0,M,,*70
$GPGGA,144954,5926.1069,N,02450.1401,E,1,12,0.7,49.6,M,17.0,M,,*73
$GPGGA,144956,5926.1067,N,02450.1405,E,1,12,0.7,50.2,M,17.0,M,,*77
$GPGGA,144958,5926.1064,N,02450.1408,E,1,12,0.7,50.1,M,17.0,M,,*74
$GPGGA,145000,5926.1061,N,02450.1409,E,1,12,0.7,50.5,M,17.0,M,,*71
$GPGGA,145002,5926.1058,N,02450.1410,E,1,12,0.7,50.8,M,17.0,M,,*7C
$GPGGA,145004,5926.1056,N,02450.1408,E,1,12,0.7,51.3,M,17.0,M,,*77
$GPGGA,145006,5926.1055,N,02450.1409,E,1,12,0.8,51.7,M,17.0,M,,*7C
$GPGGA,145008,5926.1054,N,02450.1409,E,1,12,0.8,51.7,M,17.0,M,,*73
$GPGGA,145010,5926.1053,N,02450.1407,E,1,12,0.8,51.8,M,17.0,M,,*7C
$GPGGA,145013,5926.1055,N,02450.1405,E,1,12,0.8,52.4,M,17.0,M,,*74
$GPGGA,145015,5926.1056,N,02450.1401,E,1,12,0.8,52.5,M,17.0,M,,*74
$GPGGA,145017,5926.1055,N,02450.1402,E,1,12,0.8,53.0,M,17.0,M,,*72
$GPGGA,145019,5926.1054,N,02450.1393,E,1,12,0.8,52.5,M,17.0,M,,*76
$GPGGA,145021,5926.1053,N,02450.1389,E,1,12,0.8,52.2,M,17.0,M,,*76
$GPGGA,145024,5926.1053,N,02450.1387,E,1,12,0.8,52.2,M,17.0,M,,*7D
$GPGGA,145026,5926.1054,N,02450.1388,E,1,12,0.8,52.2,M,17.0,M,,*77
$GPGGA,145028,5926.1054,N,02450.1390,E,1,12,0.8,52.3,M,17.0,M,,*71
$GPGGA,145030,5926.1053,N,02450.1389,E,1,12,0.8,51.9,M,17.0,M,,*7E
$GPGGA,145032,5926.1052,N,02450.1385,E,1,12,0.8,51.6,M,17.0,M,,*7E
$GPGGA,145034,5926.1051,N,02450.1380,E,1,12,0.8,51.6,M,17.0,M,,*7E
$GPGGA,145036,5926.1050,N,02450.1376,E,1,12,0.8,51.5,M,17.0,M,,*77
$GPGGA,145038,5926.1051,N,02450.1373,E,1,12,0.8,51.6,M,17.0,M,,*7E
$GPGGA,145040,5926.1051,N,02450.1369,E,1,12,0.8,50.8,M,17.0,M,,*75
$GPGGA,145042,5926.1051,N,02450.1361,E,1,12,0.8,50.4,M,17.0,M,,*73
$GPGGA,145044,5926.1050,N,02450.1358,E,1,12,0.8,50.3,M,17.0,M,,*79
$GPGGA,145046,5926.1048,N,02450.1357,E,1,12,0.8,50.3,M,17.0,M,,*7D
$GPGGA,145049,5926.1046,N,02450.1357,E,1,12,0.8,50.6,M,17.0,M,,*79
$GPGGA,145051,5926.1045,N,02450.1358,E,1,12,0.8,50.4,M,17.0,M,,*7E
$GPGGA,145053,5926.1044,N,02450.1357,E,1,12,0.8,50.5,M,17.0,M,,*73
$GPGGA,145055,5926.1044,N,02450.1360,E,1,12,0.8,50.7,M,17.0,M,,*73
$GPGGA,145057,5926.1044,N,02450.1362,E,1,12,0.8,51.0,M,17.0,M,,*75
$GPGGA,145059,5926.1044,N,02450.1363,E,1,12,0.8,51.3,M,17.0,M,,*79
$GPGGA,145101,5926.1045,N,02450.1359,E,1,12,0.8,51.4,M,17.0,M,,*7A
$GPGGA,145103,5926.1046,N,02450.1354,E,1,12,0.8,51.5,M,17.0,M,,*77
$GPGGA,145105,5926.1048,N,02450.1350,E,1,12,0.8,51.5,M,17.0,M,,*7B
$GPGGA,145107,5926.1050,N,02450.1346,E,1,12,0.8,51.6,M,17.0,M,,*74
$GPGGA,145109,5926.1051,N,02450.1345,E,1,12,0.8,51.7,M,17.0,M,,*79
$GPGGA,145111,5926.1051,N,02450.1346,E,1,12,0.8,51.6,M,17.0,M,,*72
$GPGGA,145114,5926.1051,N,02450.1349,E,1,12,0.8,50.9,M,17.0,M,,*76
$GPGGA,145116,5926.1051,N,02450.1351,E,1,12,0.8,50.2,M,17.0,M,,*76
$GPGGA,145118,5926.1051,N,02450.1356,E,1,12,0.8,49.8,M,17.0,M,,*7D
$GPGGA,145120,5926.1052,N,02450.1360,E,1,12,0.8,49.3,M,17.0,M,,*7B
$GPGGA,145122,5926.1051,N,02450.1362,E,1,12,0.8,48.8,M,17.0,M,,*72
$GPGGA,145124,5926.1051,N,02450.1363,E,1,12,0.8,48.3,M,17.0,M,,*7E
$GPGGA,145126,5926.1050,N,02450.1360,E,1,12,0.8,48.0,M,17.0,M,,*7D
$GPGGA,145128,5926.1050,N,02450.1361,E,1,12,0.8,48.0,M,17.0,M,,*72
$GPGGA,145130,5926.1049,N,02450.1363,E,1,12,0.8,48.3,M,17.0,M,,*72
$GPGGA,145132,5926.1049,N,02450.1364,E,1,12,0.8,48.6,M,17.0,M,,*72
$GPGGA,145134,5926.1048,N,02450.1367,E,1,12,0.8,48.7,M,17.0,M,,*77
$GPGGA,145136,5926.1047,N,02450.1369,E,2,12,0.8,48.6,M,17.0,M,,*76
$GPGGA,145139,5926.1045,N,02450.1372,E,2,12,0.8,48.3,M,17.0,M,,*74
$GPGGA,145141,5926.1044,N,02450.1376,E,2,12,0.8,48.4,M,17.0,M,,*79
$GPGGA,145143,5926.1044,N,02450.1378,E,2,12,0.8,48.8,M,17.0,M,,*79
$GPGGA,145145,5926.1044,N,02450.1379,E,2,12,0.8,48.8,M,17.0,M,,*7E
$GPGGA,145147,5926.1044,N,02450.1378,E,2,12,0.8,48.6,M,17.0,M,,*73
$GPGGA,145149,5926.1045,N,02450.1376,E,2,12,0.7,48.8,M,17.0,M,,*73
$GPGGA,145151,5926.1046,N,02450.1374,E,2,12,0.8,49.1,M,17.0,M,,*7C
$GPGGA,145153,5926.1047,N,02450.1373,E,2,12,0.8,49.3,M,17.0,M,,*7A
$GPGGA,145155,5926.1048,N,02450.1372,E,2,12,0.7,49.4,M,17.0,M,,*7A
$GPGGA,145157,5926.1048,N,02450.1371,E,2,12,0.7,49.5,M,17.0,M,,*7A
$GPGGA,145159,5926.1049,N,02450.1368,E,2,12,0.7,49.5,M,17.0,M,,*7D
$GPGGA,145202,5926.1050,N,02450.1363,E,2,12,0.8,49.9,M,17.0,M,,*70
$GPGGA,145204,5926.1053,N,02450.1362,E,2,12,0.8,50.4,M,17.0,M,,*71
$GPGGA,145206,5926.1054,N,02450.1363,E,2,12,0.8,50.7,M,17.0,M,,*76
$GPGGA,145208,5926.1056,N,02450.1365,E,2,12,0.8,51.1,M,17.0,M,,*7B
$GPGGA,145210,5926.1056,N,02450.1367,E,2,12,0.8,51.4,M,17.0,M,,*75
$GPGGA,145212,5926.1055,N,02450.1365,E,2,12,0.8,51.6,M,17.0,M,,*74
$GPGGA,145214,5926.1055,N,02450.1359,E,2,12,0.8,52.0,M,17.0,M,,*78
$GPGGA,145216,5926.1055,N,02450.1354,E,2,12,0.8,52.2,M,17.0,M,,*75
$GPGGA,145218,5926.1055,N,02450.1352,E,2,12,0.8,52.1,M,17.0,M,,*7E
$GPGGA,145221,5926.1055,N,02450.1353,E,2,12,0.8,52.3,M,17.0,M,,*77
$GPGGA,145223,5926.1056,N,02450.1352,E,2,12,0.8,52.6,M,17.0,M,,*72
$GPGGA,145225,5926.1059,N,02450.1349,E,2,12,0.8,53.0,M,17.0,M,,*76
$GPGGA,145227,5926.1061,N,02450.1347,E,2,12,0.8,52.9,M,17.0,M,,*79
$GPGGA,145229,5926.1064,N,02450.1347,E,2,12,0.8,52.3,M,17.0,M,,*78
$GPGGA,145231,5926.1065,N,02450.1347,E,2,12,0.8,51.9,M,17.0,M,,*79
$GPGGA,145233,5926.1066,N,02450.1345,E,2,12,0.8,52.0,M,17.0,M,,*70
$GPGGA,145235,5926.1067,N,02450.1344,E,2,12,0.8,52.1,M,17.0,M,,*77
$GPGGA,145238,5926.1066,N,02450.1343,E,2,12,0.8,52.2,M,17.0,M,,*7F
$GPGGA,145240,5926.1065,N,02450.1343,E,2,12,0.8,51.9,M,17.0,M,,*7B
$GPGGA,145242,5926.1063,N,02450.1343,E,2,12,0.8,51.6,M,17.0,M,,*70
$GPGGA,145244,5926.1062,N,02450.1345,E,2,12,0.8,51.4,M,17.0,M,,*73
$GPGGA,145246,5926.1060,N,02450.1345,E,2,12,0.8,51.1,M,17.0,M,,*76
$GPGGA,145249,5926.1057,N,02450.1347,E,2,12,0.8,50.3,M,17.0,M,,*7C
$GPGGA,145251,5926.1056,N,02450.1349,E,2,12,0.8,49.8,M,17.0,M,,*79
$GPGGA,145253,5926.1055,N,02450.1354,E,2,12,0.8,49.4,M,17.0,M,,*78
$GPGGA,145255,5926.1056,N,02450.1354,E,2,12,0.8,49.3,M,17.0,M,,*7A
$GPGGA,145257,5926.1055,N,02450.1353,E,2,12,0.8,49.4,M,17.0,M,,*7B
$GPGGA,145259,5926.1054,N,02450.1355,E,2,12,0.8,49.6,M,17.0,M,,*70
$GPGGA,145301,5926.1055,N,02450.1356,E,2,12,0.8,49.9,M,17.0,M,,*71
$GPGGA,145303,5926.1055,N,02450.1357,E,2,12,0.7,50.3,M,17.0,M,,*7F
$GPGGA,145305,5926.1056,N,02450.1356,E,2,12,0.7,50.7,M,17.0,M,,*7F
$GPGGA,145307,5926.1056,N,02450.1354,E,2,12,0.7,51.1,M,17.0,M,,*78
$GPGGA,145309,5926.1055,N,02450.1354,E,2,12,0.7,51.7,M,17.0,M,,*73
$GPGGA,145311,5926.1052,N,02450.1353,E,2,12,0.7,51.9,M,17.0,M,,*74
$GPGGA,145314,5926.1050,N,02450.1361,E,2,12,0.7,52.4,M,17.0,M,,*7C
$GPGGA,145316,5926.1051,N,02450.1369,E,2,12,0.7,52.5,M,17.0,M,,*76
$GPGGA,145318,5926.1051,N,02450.1366,E,2,12,0.7,52.4,M,17.0,M,,*76
$GPGGA,145320,5926.1050,N,02450.1365,E,2,12,0.7,52.2,M,17.0,M,,*79
$GPGGA,145322,5926.1048,N,02450.1365,E,2,12,0.7,51.9,M,17.0,M,,*7A
$GPGGA,145324,5926.1046,N,02450.1362,E,2,12,0.7,51.5,M,17.0,M,,*79
$GPGGA,145326,5926.1047,N,02450.1359,E,2,12,0.7,51.2,M,17.0,M,,*75
$GPGGA,145328,5926.1049,N,02450.1358,E,2,12,0.7,51.0,M,17.0,M,,*76
$GPGGA,145330,5926.1050,N,02450.1356,E,2,12,0.7,51.0,M,17.0,M,,*79
$GPGGA,145332,5926.1050,N,02450.1356,E,2,12,0.7,50.7,M,17.0,M,,*7D
$GPGGA,145334,5926.1051,N,02450.1355,E,2,12,0.8,50.8,M,17.0,M,,*79
$GPGGA,145336,5926.1052,N,02450.1356,E,2,12,0.8,51.0,M,17.0,M,,*72
$GPGGA,145338,5926.1056,N,02450.1358,E,2,12,0.7,51.4,M,17.0,M,,*7D
$GPGGA,145340,5926.1058,N,02450.1360,E,2,12,0.7,51.8,M,17.0,M,,*7B
$GPGGA,145342,5926.1058,N,02450.1360,E,2,12,0.7,51.9,M,17.0,M,,*78
$GPGGA,145344,5926.1059,N,02450.1361,E,2,12,0.8,52.0,M,17.0,M,,*7B
$GPGGA,145346,5926.1060,N,02450.1361,E,2,12,0.8,52.2,M,17.0,M,,*71
$GPGGA,145349,5926.1062,N,02450.1360,E,2,12,0.8,52.2,M,17.0,M,,*7D
$GPGGA,145351,5926.1063,N,02450.1359,E,2,12,0.8,52.1,M,17.0,M,,*7C
$GPGGA,145353,5926.1062,N,02450.1357,E,2,12,0.8,52.0,M,17.0,M,,*70
$GPGGA,145355,5926.1063,N,02450.1354,E,2,12,0.8,51.8,M,17.0,M,,*7F
$GPGGA,145357,5926.1062,N,02450.1351,E,2,12,0.8,52.1,M,17.0,M,,*73
$GPGGA,145359,5926.1063,N,02450.1349,E,2,12,0.8,52.5,M,17.0,M,,*71
$GPGGA,145401,5926.1063,N,02450.1350,E,2,12,0.8,52.7,M,17.0,M,,*71
$GPGGA,145403,5926.1064,N,02450.1349,E,2,12,0.8,53.1,M,17.0,M,,*7B
$GPGGA,145405,5926.1065,N,02450.1348,E,2,12,0.8,53.3,M,17.0,M,,*7F
$GPGGA,145408,5926.1067,N,02450.1344,E,2,12,0.8,53.5,M,17.0,M,,*7A
$GPGGA,145410,5926.1068,N,02450.1344,E,2,12,0.8,53.5,M,17.0,M,,*7C
$GPGGA,145412,5926.1068,N,02450.1344,E,2,12,0.8,53.6,M,17.0,M,,*7D
$GPGGA,145414,5926.1066,N,02450.1337,E,2,12,0.8,53.1,M,17.0,M,,*76
$GPGGA,145416,5926.1068,N,02450.1331,E,2,12,0.8,52.6,M,17.0,M,,*7A
$GPGGA,145418,5926.1068,N,02450.1323,E,2,12,0.8,52.7,M,17.0,M,,*76
$GPGGA,145420,5926.1070,N,02450.1317,E,2,12,0.8,52.7,M,17.0,M,,*73
$GPGGA,145422,5926.1072,N,02450.1314,E,2,12,0.8,52.9,M,17.0,M,,*7E
$GPGGA,145425,5926.1077,N,02450.1308,E,2,12,0.8,52.2,M,17.0,M,,*7A
$GPGGA,145427,5926.1082,N,02450.1305,E,2,12,0.8,51.7,M,17.0,M,,*79
$GPGGA,145429,5926.1083,N,02450.1303,E,2,12,0.8,51.6,M,17.0,M,,*71
$GPGGA,145431,5926.1084,N,02450.1303,E,2,12,0.8,51.5,M,17.0,M,,*7C
$GPGGA,145433,5926.1083,N,02450.1303,E,2,12,0.8,51.5,M,17.0,M,,*79
$GPGGA,145435,5926.1082,N,02450.1304,E,2,12,0.8,51.6,M,17.0,M,,*7A
$GPGGA,145437,5926.1081,N,02450.1302,E,2,12,0.8,51.5,M,17.0,M,,*7E
$GPGGA,145439,5926.1080,N,02450.1301,E,2,12,0.8,51.6,M,17.0,M,,*71
$GPGGA,145441,5926.1079,N,02450.1304,E,2,12,0.8,51.7,M,17.0,M,,*7C
$GPGGA,145443,5926.1077,N,02450.1308,E,2,12,0.8,52.0,M,17.0,M,,*78
$GPGGA,145445,5926.1076,N,02450.1311,E,2,12,0.8,52.3,M,17.0,M,,*74
$GPGGA,145447,5926.1075,N,02450.1312,E,2,12,0.8,52.1,M,17.0,M,,*74
$GPGGA,145449,5926.1074,N,02450.1312,E,2,12,0.8,51.9,M,17.0,M,,*70
$GPGGA,145451,5926.1074,N,02450.1314,E,2,12,0.8,52.0,M,17.0,M,,*75
$GPGGA,145453,5926.1074,N,02450.1316,E,2,12,0.8,52.4,M,17.0,M,,*71
$GPGGA,145455,5926.1074,N,02450.1318,E,2,12,0.8,52.8,M,17.0,M,,*75
$GPGGA,145457,5926.1074,N,02450.1319,E,2,12,0.8,53.3,M,17.0,M,,*7C
$GPGGA,145500,5926.1074,N,02450.1318,E,2,12,0.8,53.4,M,17.0,M,,*79
$GPGGA,145502,5926.1074,N,02450.1318,E,2,12,0.8,53.7,M,17.0,M,,*78
$GPGGA,145504,5926.1074,N,02450.1318,E,2,12,0.8,54.1,M,17.0,M,,*7F
$GPGGA,145506,5926.1074,N,02450.1321,E,2,12,0.8,54.6,M,17.0,M,,*70
$GPGGA,145508,5926.1074,N,02450.1323,E,2,12,0.8,54.8,M,17.0,M,,*72
$GPGGA,145510,5926.1072,N,02450.1328,E,2,12,0.8,54.8,M,17.0,M,,*76
$GPGGA,145512,5926.1072,N,02450.1331,E,2,12,0.8,54.7,M,17.0,M,,*73
$GPGGA,145514,5926.1072,N,02450.1335,E,2,12,0.8,54.9,M,17.0,M,,*7F
$GPGGA,145516,5926.1073,N,02450.1337,E,2,12,0.8,55.1,M,17.0,M,,*77
$GPGGA,145518,5926.1074,N,02450.1335,E,2,12,0.7,54.9,M,17.0,M,,*7A
$GPGGA,145520,5926.1075,N,02450.1328,E,2,12,0.7,54.5,M,17.0,M,,*70
$GPGGA,145522,5926.1077,N,02450.1326,E,2,12,0.7,54.0,M,17.0,M,,*7B
$GPGGA,145524,5926.1079,N,02450.1323,E,2,12,0.8,53.6,M,17.0,M,,*78
$GPGGA,145526,5926.1080,N,02450.1323,E,2,12,0.8,53.6,M,17.0,M,,*7C
$GPGGA,145528,5926.1082,N,02450.1322,E,2,12,0.8,53.6,M,17.0,M,,*71
$GPGGA,145530,5926.1081,N,02450.1323,E,2,12,0.8,53.5,M,17.0,M,,*79
$GPGGA,145532,5926.1080,N,02450.1324,E,2,12,0.8,53.8,M,17.0,M,,*70
$GPGGA,145535,5926.1078,N,02450.1325,E,2,12,0.8,54.2,M,17.0,M,,*7C
$GPGGA,145537,5926.1079,N,02450.1325,E,2,12,0.8,54.2,M,17.0,M,,*7F
$GPGGA,145539,5926.1080,N,02450.1327,E,2,12,0.8,54.3,M,17.0,M,,*74
$GPGGA,145541,5926.1078,N,02450.1327,E,2,12,0.8,53.8,M,17.0,M,,*70
$GPGGA,145543,5926.1076,N,02450.1327,E,2,12,0.8,53.4,M,17.0,M,,*70
$GPGGA,145545,5926.1074,N,02450.1327,E,2,12,0.8,53.2,M,17.0,M,,*72
$GPGGA,145547,5926.1074,N,02450.1327,E,2,12,0.8,53.0,M,17.0,M,,*72
$GPGGA,145549,5926.1073,N,02450.1325,E,2,12,0.8,52.7,M,17.0,M,,*7F
$GPGGA,145551,5926.1070,N,02450.1326,E,2,12,0.8,51.8,M,17.0,M,,*7A
$GPGGA,145553,5926.1070,N,02450.1328,E,2,12,0.8,51.5,M,17.0,M,,*7B
$GPGGA,145555,5926.1068,N,02450.1328,E,2,12,0.7,51.5,M,17.0,M,,*7B
$GPGGA,145557,5926.1068,N,02450.1327,E,2,12,0.7,51.5,M,17.0,M,,*76
$GPGGA,145559,5926.1068,N,02450.1328,E,2,12,0.7,51.7,M,17.0,M,,*75
$GPGGA,145601,5926.1068,N,02450.1327,E,2,12,0.7,52.0,M,17.0,M,,*70
$GPGGA,145603,5926.1068,N,02450.1329,E,2,12,0.7,52.2,M,17.0,M,,*7E
$GPGGA,145605,5926.1066,N,02450.1329,E,2,12,0.7,52.4,M,17.0,M,,*70
$GPGGA,145607,5926.1065,N,02450.1327,E,2,12,0.7,52.9,M,17.0,M,,*72
$GPGGA,145610,5926.1065,N,02450.1325,E,2,12,0.7,53.7,M,17.0,M,,*79
$GPGGA,145612,5926.1065,N,02450.1324,E,2,12,0.7,54.2,M,17.0,M,,*78
$GPGGA,145614,5926.1066,N,02450.1325,E,2,12,0.7,54.2,M,17.0,M,,*7C
$GPGGA,145616,5926.1066,N,02450.1324,E,2,12,0.8,54.4,M,17.0,M,,*76
$GPGGA,145618,5926.1070,N,02450.1326,E,2,12,0.8,54.8,M,17.0,M,,*71
$GPGGA,145620,5926.1072,N,02450.1328,E,2,12,0.7,54.6,M,17.0,M,,*77
$GPGGA,145622,5926.1074,N,02450.1331,E,2,12,0.7,53.8,M,17.0,M,,*72
$GPGGA,145624,5926.1075,N,02450.1335,E,2,12,0.8,52.9,M,17.0,M,,*7E
$GPGGA,145626,5926.1075,N,02450.1336,E,2,12,0.8,52.2,M,17.0,M,,*74
$GPGGA,145628,5926.1076,N,02450.1330,E,2,12,0.8,52.1,M,17.0,M,,*7C
$GPGGA,145630,5926.1075,N,02450.1319,E,2,12,0.8,52.2,M,17.0,M,,*7E
$GPGGA,145632,5926.1074,N,02450.1312,E,2,12,0.8,52.1,M,17.0,M,,*75
$GPGGA,145635,5926.1075,N,02450.1312,E,2,12,0.8,51.9,M,17.0,M,,*78
$GPGGA,145637,5926.1076,N,02450.1307,E,2,12,0.8,51.6,M,17.0,M,,*72
$GPGGA,145639,5926.1076,N,02450.1303,E,2,12,0.7,51.6,M,17.0,M,,*77
$GPGGA,145641,5926.1076,N,02450.1303,E,2,12,0.7,51.6,M,17.0,M,,*78
$GPGGA,145643,5926.1077,N,02450.1304,E,2,12,0.7,51.9,M,17.0,M,,*73
$GPGGA,145645,5926.1078,N,02450.1309,E,2,12,0.7,51.6,M,17.0,M,,*78
$GPGGA,145647,5926.1080,N,02450.1312,E,2,12,0.8,51.0,M,17.0,M,,*7E
$GPGGA,145649,5926.1081,N,02450.1310,E,2,12,0.8,50.7,M,17.0,M,,*75
$GPGGA,145651,5926.1080,N,02450.1304,E,2,12,0.8,50.7,M,17.0,M,,*78
$GPGGA,145653,5926.1079,N,02450.1302,E,2,12,0.8,50.9,M,17.0,M,,*74
$GPGGA,145655,5926.1079,N,02450.1304,E,2,12,0.8,50.6,M,17.0,M,,*7B
$GPGGA,145657,5926.1082,N,02450.1306,E,2,12,0.8,50.4,M,17.0,M,,*7D
$GPGGA,145659,5926.1084,N,02450.1306,E,2,12,0.8,50.6,M,17.0,M,,*77
$GPGGA,145701,5926.1084,N,02450.1303,E,2,12,0.8,50.8,M,17.0,M,,*70
$GPGGA,145703,5926.1084,N,02450.1302,E,2,12,0.8,51.2,M,17.0,M,,*78
$GPGGA,145705,5926.1082,N,02450.1302,E,2,12,0.7,51.6,M,17.0,M,,*73
$GPGGA,145707,5926.1080,N,02450.1303,E,2,12,0.7,51.9,M,17.0,M,,*7D
$GPGGA,145710,5926.1079,N,02450.1303,E,2,12,0.7,51.9,M,17.0,M,,*7D
$GPGGA,145712,5926.1079,N,02450.1302,E,2,12,0.7,52.0,M,17.0,M,,*74
$GPGGA,145714,5926.1080,N,02450.1303,E,2,12,0.7,52.4,M,17.0,M,,*71
$GPGGA,145716,5926.1079,N,02450.1308,E,2,12,0.7,53.0,M,17.0,M,,*7B
$GPGGA,145718,5926.1077,N,02450.1312,E,2,12,0.8,53.4,M,17.0,M,,*7B
$GPGGA,145720,5926.1078,N,02450.1313,E,2,12,0.8,53.3,M,17.0,M,,*79
$GPGGA,145722,5926.1079,N,02450.1308,E,2,12,0.7,53.5,M,17.0,M,,*79
$GPGGA,145724,5926.1080,N,02450.1304,E,2,12,0.7,53.6,M,17.0,M,,*76
$GPGGA,145726,5926.1081,N,02450.1297,E,2,12,0.7,54.0,M,17.0,M,,*7F
$GPGGA,145728,5926.1083,N,02450.1294,E,2,12,0.7,54.0,M,17.0,M,,*70
$GPGGA,145730,5926.1085,N,02450.1291,E,2,12,0.7,54.2,M,17.0,M,,*78
$GPGGA,145732,5926.1086,N,02450.1290,E,2,12,0.7,54.3,M,17.0,M,,*79
$GPGGA,145734,5926.1086,N,02450.1288,E,2,12,0.7,54.6,M,17.0,M,,*73
$GPGGA,145736,5926.1087,N,02450.1288,E,2,12,0.7,55.1,M,17.0,M,,*76
$GPGGA,145738,5926.1087,N,02450.1292,E,2,12,0.8,55.3,M,17.0,M,,*7E
$GPGGA,145740,5926.1086,N,02450.1294,E,2,12,0.8,55.2,M,17.0,M,,*77
$GPGGA,145742,5926.1086,N,02450.1294,E,2,12,0.8,55.1,M,17.0,M,,*76
$GPGGA,145745,5926.1085,N,02450.1294,E,2,12,0.8,55.0,M,17.0,M,,*73
$GPGGA,145747,5926.1084,N,02450.1296,E,2,12,0.8,55.2,M,17.0,M,,*70
$GPGGA,145749,5926.1081,N,02450.1298,E,2,12,0.8,54.9,M,17.0,M,,*7F
$GPGGA,145751,5926.1079,N,02450.1300,E,2,12,0.8,54.7,M,17.0,M,,*7F
$GPGGA,145753,5926.1075,N,02450.1306,E,2,12,0.8,54.2,M,17.0,M,,*72
$GPGGA,145756,5926.1072,N,02450.1308,E,2,12,0.8,53.6,M,17.0,M,,*7D
$GPGGA,145758,5926.1071,N,02450.1308,E,2,12,0.8,53.5,M,17.0,M,,*73
$GPGGA,145800,5926.1071,N,02450.1309,E,2,12,0.8,53.3,M,17.0,M,,*76
$GPGGA,145802,5926.1070,N,02450.1307,E,2,12,0.8,52.8,M,17.0,M,,*71
$GPGGA,145804,5926.1071,N,02450.1307,E,2,12,0.8,52.7,M,17.0,M,,*79
$GPGGA,145807,5926.1071,N,02450.1311,E,2,12,0.8,52.7,M,17.0,M,,*7D
$GPGGA,145809,5926.1071,N,02450.1314,E,2,12,0.8,52.7,M,17.0,M,,*76
$GPGGA,145811,5926.1070,N,02450.1316,E,2,12,0.8,52.7,M,17.0,M,,*7C
$GPGGA,145813,5926.1069,N,02450.1319,E,2,12,0.8,52.7,M,17.0,M,,*79
$GPGGA,145815,5926.1068,N,02450.1320,E,2,12,0.8,52.7,M,17.0,M,,*74
$GPGGA,145817,5926.1069,N,02450.1323,E,2,12,0.8,52.8,M,17.0,M,,*7B
$GPGGA,145819,5926.1069,N,02450.1325,E,2,12,0.8,52.9,M,17.0,M,,*72
$GPGGA,145821,5926.1068,N,02450.1326,E,2,12,0.8,52.9,M,17.0,M,,*7B
$GPGGA,145823,5926.1068,N,02450.1326,E,2,12,0.8,52.9,M,17.0,M,,*79
$GPGGA,145825,5926.1067,N,02450.1324,E,2,12,0.9,53.0,M,17.0,M,,*7B
$GPGGA,145827,5926.1067,N,02450.1324,E,2,12,0.8,53.1,M,17.0,M,,*79
$GPGGA,145829,5926.1067,N,02450.1322,E,2,12,0.8,53.3,M,17.0,M,,*73
$GPGGA,145831,5926.1067,N,02450.1318,E,2,12,0.8,53.3,M,17.0,M,,*73
$GPGGA,145833,5926.1068,N,02450.1316,E,2,12,0.8,53.1,M,17.0,M,,*72
$GPGGA,145835,5926.1067,N,02450.1316,E,2,12,0.8,53.0,M,17.0,M,,*7A
$GPGGA,145837,5926.1067,N,02450.1314,E,2,12,0.8,52.9,M,17.0,M,,*72
$GPGGA,145839,5926.1067,N,02450.1314,E,2,12,0.8,53.1,M,17.0,M,,*75
$GPGGA,145841,5926.1068,N,02450.1310,E,2,12,0.8,53.0,M,17.0,M,,*70
$GPGGA,145843,5926.1068,N,02450.1311,E,2,12,0.8,53.0,M,17.0,M,,*73
$GPGGA,145845,5926.1068,N,02450.1314,E,2,12,0.8,53.0,M,17.0,M,,*70
$GPGGA,145847,5926.1069,N,02450.1313,E,2,12,0.8,53.0,M,17.0,M,,*74
$GPGGA,145849,5926.1070,N,02450.1311,E,2,12,0.8,53.0,M,17.0,M,,*70
$GPGGA,145851,5926.1071,N,02450.1307,E,2,12,0.9,53.1,M,17.0,M,,*7F
$GPGGA,145853,5926.1073,N,02450.1304,E,2,12,0.9,52.9,M,17.0,M,,*75
$GPGGA,145856,5926.1074,N,02450.1301,E,2,12,0.9,52.6,M,17.0,M,,*7D
$GPGGA,145858,5926.1075,N,02450.1298,E,2,12,0.7,52.3,M,17.0,M,,*78
$GPGGA,145900,5926.1077,N,02450.1298,E,2,12,0.7,52.1,M,17.0,M,,*74
$GPGGA,145902,5926.1078,N,02450.1298,E,2,12,0.7,51.9,M,17.0,M,,*72
$GPGGA,145904,5926.1081,N,02450.1296,E,2,12,0.7,51.3,M,17.0,M,,*76
$GPGGA,145906,5926.1081,N,02450.1296,E,2,12,0.7,51.0,M,17.0,M,,*77
$GPGGA,145908,5926.1080,N,02450.1296,E,2,12,0.7,51.1,M,17.0,M,,*79
$GPGGA,145910,5926.1079,N,02450.1298,E,2,12,0.7,51.1,M,17.0,M,,*78
$GPGGA,145912,5926.1078,N,02450.1298,E,2,12,0.7,51.1,M,17.0,M,,*7B
$GPGGA,145914,5926.1076,N,02450.1297,E,2,12,0.7,51.2,M,17.0,M,,*7F
$GPGGA,145916,5926.1075,N,02450.1298,E,2,12,0.7,51.2,M,17.0,M,,*71
$GPGGA,145919,5926.1072,N,02450.1302,E,2,12,0.7,51.4,M,17.0,M,,*7D
$GPGGA,145921,5926.1070,N,02450.1311,E,2,12,0.7,51.8,M,17.0,M,,*7A
$GPGGA,145923,5926.1069,N,02450.1319,E,2,12,0.7,52.1,M,17.0,M,,*72
$GPGGA,145925,5926.1068,N,02450.1322,E,2,12,0.7,52.2,M,17.0,M,,*7E
$GPGGA,145927,5926.1066,N,02450.1323,E,2,12,0.7,52.1,M,17.0,M,,*70
$GPGGA,145930,5926.1063,N,02450.1328,E,2,12,0.7,52.3,M,17.0,M,,*7A
$GPGGA,145932,5926.1064,N,02450.1330,E,2,12,0.7,52.5,M,17.0,M,,*70
$GPGGA,145934,5926.1065,N,02450.1328,E,2,12,0.7,53.1,M,17.0,M,,*7B
$GPGGA,145936,5926.1066,N,02450.1321,E,2,12,0.7,53.2,M,17.0,M,,*70
$GPGGA,145938,5926.1065,N,02450.1317,E,2,12,0.7,53.1,M,17.0,M,,*7B
$GPGGA,145941,5926.1067,N,02450.1315,E,2,12,0.7,53.1,M,17.0,M,,*75
$GPGGA,145943,5926.1067,N,02450.1313,E,2,12,0.7,53.3,M,17.0,M,,*73
$GPGGA,145945,5926.1069,N,02450.1310,E,2,12,0.7,53.4,M,17.0,M,,*7F
$GPGGA,145947,5926.1070,N,02450.1307,E,2,12,0.7,53.1,M,17.0,M,,*76
$GPGGA,145949,5926.1071,N,02450.1304,E,2,12,0.8,53.0,M,17.0,M,,*74
$GPGGA,145951,5926.1072,N,02450.1304,E,2,12,0.8,53.0,M,17.0,M,,*7E
$GPGGA,145954,5926.1073,N,02450.1301,E,2,12,0.8,53.2,M,17.0,M,,*7D
$GPGGA,145956,5926.1072,N,02450.1300,E,2,12,0.8,53.3,M,17.0,M,,*7E
$GPGGA,145958,5926.1070,N,02450.1295,E,2,12,0.8,53.2,M,17.0,M,,*7E
$GPGGA,150000,5926.1069,N,02450.1291,E,2,12,0.8,53.4,M,17.0,M,,*74
$GPGGA,150002,5926.1069,N,02450.1291,E,2,12,0.7,53.6,M,17.0,M,,*7B
$GPGGA,150004,5926.1069,N,02450.1293,E,2,12,0.7,53.6,M,17.0,M,,*7F
$GPGGA,150006,5926.1068,N,02450.1295,E,2,12,0.7,53.9,M,17.0,M,,*75
$GPGGA,150008,5926.1067,N,02450.1296,E,2,12,0.7,53.8,M,17.0,M,,*76
$GPGGA,150010,5926.1065,N,02450.1296,E,2,12,0.7,53.5,M,17.0,M,,*70
$GPGGA,150012,5926.1064,N,02450.1297,E,2,12,0.8,53.3,M,17.0,M,,*7B
$GPGGA,150014,5926.1064,N,02450.1299,E,2,12,0.8,53.0,M,17.0,M,,*70
$GPGGA,150017,5926.1063,N,02450.1306,E,2,12,0.8,53.0,M,17.0,M,,*73
$GPGGA,150019,5926.1060,N,02450.1310,E,2,12,0.8,52.8,M,17.0,M,,*70
$GPGGA,150021,5926.1057,N,02450.1314,E,2,12,0.8,52.8,M,17.0,M,,*7B
$GPGGA,150023,5926.1055,N,02450.1314,E,2,12,0.8,53.5,M,17.0,M,,*77
$GPGGA,150025,5926.1054,N,02450.1316,E,2,12,0.8,54.0,M,17.0,M,,*70
$GPGGA,150027,5926.1050,N,02450.1323,E,2,12,0.8,54.3,M,17.0,M,,*73
$GPGGA,150030,5926.1045,N,02450.1333,E,2,12,0.9,55.0,M,17.0,M,,*73
$GPGGA,150032,5926.1041,N,02450.1338,E,2,12,0.9,55.3,M,17.0,M,,*7D
$GPGGA,150034,5926.1036,N,02450.1342,E,2,12,0.8,55.2,M,17.0,M,,*76
$GPGGA,150036,5926.1036,N,02450.1343,E,2,12,0.8,55.0,M,17.0,M,,*77
$GPGGA,150038,5926.1038,N,02450.1343,E,2,12,0.8,54.8,M,17.0,M,,*7E
$GPGGA,150040,5926.1039,N,02450.1343,E,2,12,0.8,54.2,M,17.0,M,,*7A
$GPGGA,150042,5926.1041,N,02450.1342,E,2,12,0.8,53.7,M,17.0,M,,*74
$GPGGA,150044,5926.1042,N,02450.1342,E,2,12,0.8,53.3,M,17.0,M,,*75
$GPGGA,150046,5926.1041,N,02450.1341,E,2,12,0.8,53.0,M,17.0,M,,*74
$GPGGA,150048,5926.1042,N,02450.1345,E,2,12,0.8,52.7,M,17.0,M,,*7B
$GPGGA,150050,5926.1042,N,02450.1348,E,2,12,0.9,52.2,M,17.0,M,,*7B
$GPGGA,150052,5926.1043,N,02450.1353,E,2,12,0.9,51.7,M,17.0,M,,*74
$GPGGA,150055,5926.1043,N,02450.1358,E,2,12,0.9,52.0,M,17.0,M,,*7C
$GPGGA,150057,5926.1043,N,02450.1359,E,2,12,0.8,52.3,M,17.0,M,,*7D
$GPGGA,150059,5926.1041,N,02450.1364,E,2,12,0.8,52.5,M,17.0,M,,*79
$GPGGA,150101,5926.1041,N,02450.1368,E,2,12,0.8,52.5,M,17.0,M,,*79
$GPGGA,150103,5926.1042,N,02450.1371,E,2,12,0.8,52.7,M,17.0,M,,*72
$GPGGA,150106,5926.1042,N,02450.1371,E,2,12,0.8,52.9,M,17.0,M,,*79
$GPGGA,150108,5926.1041,N,02450.1371,E,2,12,0.8,52.9,M,17.0,M,,*74
$GPGGA,150110,5926.1038,N,02450.1371,E,2,12,0.8,52.9,M,17.0,M,,*73
$GPGGA,150112,5926.1038,N,02450.1371,E,2,12,0.8,52.6,M,17.0,M,,*7E
$GPGGA,150114,5926.1038,N,02450.1372,E,2,12,0.8,52.3,M,17.0,M,,*7E
$GPGGA,150116,5926.1037,N,02450.1373,E,2,12,0.7,52.0,M,17.0,M,,*7E
$GPGGA,150118,5926.1037,N,02450.1372,E,2,12,0.7,51.8,M,17.0,M,,*7A
$GPGGA,150120,5926.1038,N,02450.1372,E,2,12,0.7,51.8,M,17.0,M,,*7E
$GPGGA,150122,5926.1038,N,02450.1373,E,2,12,0.8,51.7,M,17.0,M,,*7D
$GPGGA,150124,5926.1038,N,02450.1374,E,2,12,0.8,51.5,M,17.0,M,,*7E
$GPGGA,150126,5926.1035,N,02450.1374,E,2,12,0.8,51.4,M,17.0,M,,*70
$GPGGA,150128,5926.1032,N,02450.1372,E,2,12,0.8,51.4,M,17.0,M,,*7F
$GPGGA,150131,5926.1030,N,02450.1368,E,2,12,0.8,51.6,M,17.0,M,,*7C
$GPGGA,150133,5926.1030,N,02450.1366,E,2,12,0.7,51.8,M,17.0,M,,*71
$GPGGA,150135,5926.1032,N,02450.1361,E,2,12,0.7,51.9,M,17.0,M,,*73
$GPGGA,150137,5926.1035,N,02450.1358,E,2,12,0.7,51.9,M,17.0,M,,*7C
$GPGGA,150139,5926.1038,N,02450.1352,E,2,12,0.7,52.2,M,17.0,M,,*7D
$GPGGA,150142,5926.1042,N,02450.1352,E,2,12,0.8,51.9,M,17.0,M,,*7B
$GPGGA,150144,5926.1046,N,02450.1351,E,2,12,0.7,51.9,M,17.0,M,,*75
$GPGGA,150146,5926.1051,N,02450.1350,E,2,12,0.7,51.9,M,17.0,M,,*70
$GPGGA,150148,5926.1055,N,02450.1348,E,2,12,0.7,51.9,M,17.0,M,,*73
$GPGGA,150150,5926.1059,N,02450.1346,E,2,12,0.7,52.0,M,17.0,M,,*72
$GPGGA,150152,5926.1061,N,02450.1343,E,2,12,0.7,52.2,M,17.0,M,,*7C
$GPGGA,150155,5926.1064,N,02450.1340,E,2,12,0.7,52.4,M,17.0,M,,*7B
$GPGGA,150157,5926.1064,N,02450.1338,E,2,12,0.7,52.3,M,17.0,M,,*71
$GPGGA,150159,5926.1067,N,02450.1336,E,2,12,0.7,52.2,M,17.0,M,,*73
$GPGGA,150201,5926.1068,N,02450.1329,E,2,12,0.7,52.1,M,17.0,M,,*7F
$GPGGA,150203,5926.1069,N,02450.1326,E,2,12,0.7,52.0,M,17.0,M,,*72
$GPGGA,150206,5926.1072,N,02450.1328,E,2,12,0.7,51.4,M,17.0,M,,*74
$GPGGA,150208,5926.1074,N,02450.1328,E,2,12,0.7,51.2,M,17.0,M,,*7A
$GPGGA,150210,5926.1076,N,02450.1328,E,2,12,0.7,51.2,M,17.0,M,,*71
$GPGGA,150212,5926.1077,N,02450.1324,E,2,12,0.7,51.3,M,17.0,M,,*7F
$GPGGA,150214,5926.1078,N,02450.1319,E,2,12,0.7,51.7,M,17.0,M,,*7C
$GPGGA,150216,5926.1079,N,02450.1317,E,2,12,0.7,51.8,M,17.0,M,,*7E
$GPGGA,150218,5926.1081,N,02450.1317,E,2,12,0.7,51.7,M,17.0,M,,*78
$GPGGA,150220,5926.1081,N,02450.1318,E,2,12,0.7,51.9,M,17.0,M,,*72
$GPGGA,150222,5926.1081,N,02450.1314,E,2,12,0.7,51.9,M,17.0,M,,*7C
$GPGGA,150224,5926.1081,N,02450.1315,E,2,12,0.7,51.9,M,17.0,M,,*7B
$GPGGA,150226,5926.1081,N,02450.1318,E,2,12,0.7,51.7,M,17.0,M,,*7A
$GPGGA,150228,5926.1079,N,02450.1320,E,2,12,0.7,51.3,M,17.0,M,,*7C
$GPGGA,150230,5926.1078,N,02450.1322,E,2,12,0.7,51.0,M,17.0,M,,*75
$GPGGA,150232,5926.1076,N,02450.1324,E,2,12,0.7,50.7,M,17.0,M,,*79
$GPGGA,150234,5926.1076,N,02450.1326,E,2,12,0.7,50.5,M,17.0,M,,*7F
$GPGGA,150236,5926.1075,N,02450.1329,E,2,12,0.7,50.4,M,17.0,M,,*70
$GPGGA,150238,5926.1074,N,02450.1330,E,2,12,0.7,50.3,M,17.0,M,,*70
$GPGGA,150240,5926.1074,N,02450.1332,E,2,12,0.7,50.1,M,17.0,M,,*7F
$GPGGA,150242,5926.1072,N,02450.1337,E,2,12,0.7,50.1,M,17.0,M,,*7E
$GPGGA,150244,5926.1070,N,02450.1340,E,2,12,0.7,50.0,M,17.0,M,,*7B
$GPGGA,150246,5926.1069,N,02450.1345,E,2,12,0.7,49.9,M,17.0,M,,*75
$GPGGA,150248,5926.1069,N,02450.1348,E,2,12,0.7,49.8,M,17.0,M,,*77
$GPGGA,150250,5926.1071,N,02450.1351,E,2,12,0.7,49.6,M,17.0,M,,*71
$GPGGA,150252,5926.1071,N,02450.1351,E,2,12,0.7,49.5,M,17.0,M,,*70
$GPGGA,150254,5926.1070,N,02450.1350,E,2,12,0.7,49.5,M,17.0,M,,*76
$GPGGA,150256,5926.1070,N,02450.1349,E,2,12,0.8,49.5,M,17.0,M,,*73
$GPGGA,150258,5926.1070,N,02450.1350,E,2,12,0.8,49.0,M,17.0,M,,*70
$GPGGA,150300,5926.1071,N,02450.1350,E,2,12,0.8,48.3,M,17.0,M,,*7F
$GPGGA,150303,5926.1071,N,02450.1348,E,2,12,0.7,47.7,M,17.0,M,,*71
$GPGGA,150305,5926.1070,N,02450.1344,E,2,12,0.8,47.7,M,17.0,M,,*75
$GPGGA,150307,5926.1069,N,02450.1339,E,2,12,0.8,47.8,M,17.0,M,,*7A
$GPGGA,150309,5926.1069,N,02450.1339,E,2,12,0.8,47.6,M,17.0,M,,*7A
$GPGGA,150311,5926.1067,N,02450.1338,E,2,12,0.8,47.4,M,17.0,M,,*7E
$GPGGA,150313,5926.1066,N,02450.1341,E,2,12,0.8,47.5,M,17.0,M,,*72
$GPGGA,150315,5926.1067,N,02450.1343,E,2,12,0.7,47.9,M,17.0,M,,*74
$GPGGA,150317,5926.1067,N,02450.1348,E,2,12,0.7,48.5,M,17.0,M,,*7E
$GPGGA,150319,5926.1067,N,02450.1351,E,2,12,0.8,49.0,M,17.0,M,,*73
$GPGGA,150321,5926.1068,N,02450.1352,E,2,12,0.8,49.1,M,17.0,M,,*75
$GPGGA,150323,5926.1067,N,02450.1354,E,2,12,0.8,49.1,M,17.0,M,,*7E
$GPGGA,150325,5926.1066,N,02450.1356,E,2,12,0.8,49.2,M,17.0,M,,*78
$GPGGA,150327,5926.1066,N,02450.1358,E,2,12,0.8,49.5,M,17.0,M,,*73
$GPGGA,150329,5926.1066,N,02450.1358,E,2,12,0.8,49.6,M,17.0,M,,*7E
$GPGGA,150331,5926.1068,N,02450.1354,E,2,12,0.7,49.3,M,17.0,M,,*7F
$GPGGA,150333,5926.1070,N,02450.1350,E,2,12,0.7,49.0,M,17.0,M,,*73
$GPGGA,150335,5926.1072,N,02450.1347,E,2,12,0.7,48.7,M,17.0,M,,*77
$GPGGA,150337,5926.1073,N,02450.1346,E,2,12,0.7,48.6,M,17.0,M,,*74
$GPGGA,150340,5926.1074,N,02450.1342,E,2,12,0.7,48.8,M,17.0,M,,*79
$GPGGA,150342,5926.1074,N,02450.1339,E,2,12,0.7,48.5,M,17.0,M,,*7A
$GPGGA,150344,5926.1075,N,02450.1337,E,2,12,0.7,48.0,M,17.0,M,,*76
$GPGGA,150346,5926.1075,N,02450.1333,E,2,12,0.7,47.4,M,17.0,M,,*7B
$GPGGA,150348,5926.1074,N,02450.1331,E,2,12,0.7,47.0,M,17.0,M,,*72
$GPGGA,150350,5926.1074,N,02450.1330,E,2,12,0.7,46.9,M,17.0,M,,*72
$GPGGA,150352,5926.1072,N,02450.1326,E,2,12,0.8,46.7,M,17.0,M,,*70
$GPGGA,150354,5926.1071,N,02450.1320,E,2,12,0.7,46.4,M,17.0,M,,*7F
$GPGGA,150356,5926.1074,N,02450.1316,E,2,12,0.7,46.1,M,17.0,M,,*78
$GPGGA,150358,5926.1075,N,02450.1316,E,2,12,0.7,45.9,M,17.0,M,,*7C
$GPGGA,150400,5926.1075,N,02450.1317,E,2,12,0.7,45.7,M,17.0,M,,*79
$GPGGA,150402,5926.1074,N,02450.1316,E,2,12,0.7,45.7,M,17.0,M,,*7B
$GPGGA,150404,5926.1073,N,02450.1314,E,2,12,0.7,45.7,M,17.0,M,,*78
$GPGGA,150406,5926.1074,N,02450.1311,E,2,12,0.7,46.1,M,17.0,M,,*7D
$GPGGA,150408,5926.1074,N,02450.1313,E,2,12,0.7,46.5,M,17.0,M,,*75
$GPGGA,150410,5926.1074,N,02450.1313,E,2,12,0.7,46.8,M,17.0,M,,*71
$GPGGA,150412,5926.1074,N,02450.1314,E,2,12,0.7,47.1,M,17.0,M,,*7C
$GPGGA,150414,5926.1072,N,02450.1312,E,2,12,0.7,46.9,M,17.0,M,,*73
$GPGGA,150416,5926.1071,N,02450.1310,E,2,12,0.7,47.0,M,17.0,M,,*78
$GPGGA,150418,5926.1071,N,02450.1310,E,2,12,0.7,47.2,M,17.0,M,,*74
$GPGGA,150420,5926.1071,N,02450.1312,E,2,12,0.7,47.6,M,17.0,M,,*79
$GPGGA,150422,5926.1070,N,02450.1316,E,2,12,0.7,48.0,M,17.0,M,,*77
$GPGGA,150424,5926.1068,N,02450.1316,E,2,12,0.7,48.3,M,17.0,M,,*7B
$GPGGA,150427,5926.1066,N,02450.1316,E,2,12,0.7,48.8,M,17.0,M,,*7D
$GPGGA,150429,5926.1066,N,02450.1319,E,2,12,0.7,49.0,M,17.0,M,,*75
$GPGGA,150431,5926.1067,N,02450.1328,E,2,12,0.7,49.2,M,17.0,M,,*7D
$GPGGA,150433,5926.1067,N,02450.1332,E,2,12,0.7,49.5,M,17.0,M,,*73
$GPGGA,150435,5926.1067,N,02450.1332,E,2,12,0.7,49.3,M,17.0,M,,*73
$GPGGA,150437,5926.1068,N,02450.1330,E,1,12,0.7,49.2,M,17.0,M,,*7E
$GPGGA,150439,5926.1067,N,02450.1330,E,1,12,0.7,49.1,M,17.0,M,,*7C
$GPGGA,150441,5926.1067,N,02450.1329,E,1,12,0.8,48.8,M,17.0,M,,*7C
$GPGGA,150443,5926.1067,N,02450.1330,E,1,12,0.8,48.7,M,17.0,M,,*79
$GPGGA,150445,5926.1067,N,02450.1328,E,1,12,0.8,48.5,M,17.0,M,,*74
$GPGGA,150447,5926.1066,N,02450.1319,E,1,12,0.8,48.2,M,17.0,M,,*72
$GPGGA,150450,5926.1065,N,02450.1316,E,1,12,0.8,48.2,M,17.0,M,,*78
$GPGGA,150452,5926.1065,N,02450.1321,E,1,12,0.8,48.7,M,17.0,M,,*7B
$GPGGA,150454,5926.1065,N,02450.1327,E,1,12,0.8,48.9,M,17.0,M,,*75
$GPGGA,150456,5926.1065,N,02450.1332,E,1,12,0.8,48.9,M,17.0,M,,*73
$GPGGA,150458,5926.1064,N,02450.1336,E,1,12,0.8,48.8,M,17.0,M,,*79
$GPGGA,150500,5926.1062,N,02450.1337,E,1,12,0.8,48.8,M,17.0,M,,*72
$GPGGA,150502,5926.1061,N,02450.1338,E,1,12,0.8,48.8,M,17.0,M,,*7C
$GPGGA,150504,5926.1060,N,02450.1337,E,1,12,0.8,48.7,M,17.0,M,,*7B
$GPGGA,150506,5926.1060,N,02450.1339,E,1,12,0.8,48.7,M,17.0,M,,*77
$GPGGA,150508,5926.1058,N,02450.1339,E,2,12,0.8,48.8,M,17.0,M,,*7E
$GPGGA,150510,5926.1057,N,02450.1337,E,2,12,0.8,49.0,M,17.0,M,,*7F
$GPGGA,150512,5926.1054,N,02450.1332,E,2,12,0.8,49.0,M,17.0,M,,*7B
$GPGGA,150514,5926.1051,N,02450.1327,E,2,12,0.9,49.5,M,17.0,M,,*78
$GPGGA,150516,5926.1050,N,02450.1328,E,2,12,1.0,50.2,M,17.0,M,,*73
$GPGGA,150518,5926.1048,N,02450.1332,E,2,12,1.0,50.2,M,17.0,M,,*7F
$GPGGA,150520,5926.1047,N,02450.1331,E,2,12,1.0,49.8,M,17.0,M,,*7A
$GPGGA,150523,5926.1047,N,02450.1328,E,2,12,1.0,49.8,M,17.0,M,,*71
$GPGGA,150525,5926.1048,N,02450.1324,E,2,12,1.0,50.0,M,17.0,M,,*74
$GPGGA,150527,5926.1050,N,02450.1322,E,2,12,1.0,50.2,M,17.0,M,,*7B
$GPGGA,150529,5926.1053,N,02450.1322,E,2,12,1.0,49.7,M,17.0,M,,*7B
$GPGGA,150531,5926.1054,N,02450.1322,E,2,12,1.0,49.6,M,17.0,M,,*74
$GPGGA,150533,5926.1053,N,02450.1322,E,2,12,1.0,49.8,M,17.0,M,,*7F
$GPGGA,150535,5926.1053,N,02450.1317,E,2,12,1.0,50.5,M,17.0,M,,*7A
$GPGGA,150537,5926.1054,N,02450.1315,E,2,12,0.9,51.0,M,17.0,M,,*71
$GPGGA,150539,5926.1054,N,02450.1312,E,2,12,0.8,51.3,M,17.0,M,,*7A
$GPGGA,150541,5926.1055,N,02450.1313,E,2,12,0.8,51.5,M,17.0,M,,*73
$GPGGA,150543,5926.1056,N,02450.1312,E,2,12,0.8,51.9,M,17.0,M,,*7F
$GPGGA,150545,5926.1057,N,02450.1313,E,2,12,0.8,52.4,M,17.0,M,,*77
$GPGGA,150547,5926.1058,N,02450.1314,E,2,12,0.8,53.0,M,17.0,M,,*78
$GPGGA,150549,5926.1058,N,02450.1317,E,2,12,0.8,53.5,M,17.0,M,,*70
$GPGGA,150551,5926.1059,N,02450.1323,E,2,12,0.7,53.5,M,17.0,M,,*70
$GPGGA,150553,5926.1058,N,02450.1329,E,2,12,0.7,53.4,M,17.0,M,,*78
$GPGGA,150555,5926.1057,N,02450.1334,E,2,12,0.7,53.6,M,17.0,M,,*7F
$GPGGA,150557,5926.1057,N,02450.1338,E,2,12,0.7,54.1,M,17.0,M,,*71
$GPGGA,150600,5926.1056,N,02450.1344,E,2,12,0.8,54.3,M,17.0,M,,*77
$GPGGA,150602,5926.1056,N,02450.1351,E,2,12,0.8,54.2,M,17.0,M,,*70
$GPGGA,150604,5926.1053,N,02450.1360,E,2,12,0.8,53.0,M,17.0,M,,*74
$GPGGA,150606,5926.1052,N,02450.1364,E,2,12,0.8,52.1,M,17.0,M,,*73
$GPGGA,150608,5926.1051,N,02450.1364,E,2,12,0.8,51.1,M,17.0,M,,*7D
$GPGGA,150610,5926.1049,N,02450.1363,E,2,12,0.8,50.7,M,17.0,M,,*7D
$GPGGA,150612,5926.1049,N,02450.1362,E,2,12,0.8,50.6,M,17.0,M,,*7F
$GPGGA,150614,5926.1050,N,02450.1360,E,2,12,0.8,50.0,M,17.0,M,,*75
$GPGGA,150616,5926.1052,N,02450.1354,E,2,12,0.8,50.0,M,17.0,M,,*72
$GPGGA,150618,5926.1052,N,02450.1352,E,2,12,0.8,50.3,M,17.0,M,,*79
$GPGGA,150620,5926.1053,N,02450.1352,E,2,12,0.8,50.5,M,17.0,M,,*75
$GPGGA,150623,5926.1053,N,02450.1353,E,2,12,0.8,50.5,M,17.0,M,,*77
$GPGGA,150625,5926.1055,N,02450.1350,E,2,12,0.8,50.7,M,17.0,M,,*76
$GPGGA,150627,5926.1057,N,02450.1350,E,2,12,0.8,50.8,M,17.0,M,,*79
$GPGGA,150629,5926.1058,N,02450.1351,E,2,12,0.8,50.9,M,17.0,M,,*78
$GPGGA,150631,5926.1058,N,02450.1350,E,2,12,0.7,51.2,M,17.0,M,,*75
$GPGGA,150633,5926.1058,N,02450.1351,E,2,12,0.7,51.2,M,17.0,M,,*76
$GPGGA,150635,5926.1057,N,02450.1352,E,2,12,0.7,51.1,M,17.0,M,,*7F
$GPGGA,150637,5926.1057,N,02450.1351,E,2,12,0.7,50.9,M,17.0,M,,*77
$GPGGA,150639,5926.1059,N,02450.1349,E,2,12,0.7,50.7,M,17.0,M,,*70
$GPGGA,150641,5926.1060,N,02450.1345,E,2,12,0.7,50.4,M,17.0,M,,*7A
$GPGGA,150643,5926.1060,N,02450.1341,E,2,12,0.7,49.7,M,17.0,M,,*77
$GPGGA,150645,5926.1059,N,02450.1339,E,2,12,0.7,49.1,M,17.0,M,,*72
$GPGGA,150648,5926.1060,N,02450.1331,E,2,12,0.7,48.3,M,17.0,M,,*7E
$GPGGA,150650,5926.1060,N,02450.1325,E,2,12,0.7,48.2,M,17.0,M,,*73
$GPGGA,150652,5926.1058,N,02450.1322,E,2,12,0.8,48.7,M,17.0,M,,*77
$GPGGA,150654,5926.1055,N,02450.1316,E,2,12,0.8,48.7,M,17.0,M,,*7B
$GPGGA,150656,5926.1055,N,02450.1316,E,2,12,0.8,48.8,M,17.0,M,,*76
$GPGGA,150658,5926.1054,N,02450.1318,E,2,12,0.7,49.5,M,17.0,M,,*74
$GPGGA,150700,5926.1051,N,02450.1321,E,2,12,0.7,50.4,M,17.0,M,,*7E
$GPGGA,150702,5926.1051,N,02450.1320,E,2,12,0.8,50.8,M,17.0,M,,*7E
$GPGGA,150704,5926.1051,N,02450.1321,E,2,12,0.8,50.8,M,17.0,M,,*79
$GPGGA,150706,5926.1050,N,02450.1324,E,2,12,0.8,50.9,M,17.0,M,,*7E
$GPGGA,150708,5926.1050,N,02450.1324,E,2,12,0.8,50.9,M,17.0,M,,*70
$GPGGA,150710,5926.1047,N,02450.1321,E,2,12,0.8,50.9,M,17.0,M,,*7A
$GPGGA,150712,5926.1046,N,02450.1317,E,2,12,0.8,51.3,M,17.0,M,,*77
$GPGGA,150714,5926.1045,N,02450.1314,E,2,12,0.9,51.9,M,17.0,M,,*7A
$GPGGA,150716,5926.1044,N,02450.1313,E,2,12,0.8,52.1,M,17.0,M,,*74
$GPGGA,150718,5926.1045,N,02450.1315,E,2,12,0.8,52.5,M,17.0,M,,*79
$GPGGA,150720,5926.1046,N,02450.1313,E,2,12,0.8,52.9,M,17.0,M,,*7B
$GPGGA,150723,5926.1047,N,02450.1311,E,2,12,0.8,54.0,M,17.0,M,,*74
$GPGGA,150725,5926.1048,N,02450.1311,E,2,12,0.7,54.5,M,17.0,M,,*77
$GPGGA,150727,5926.1049,N,02450.1310,E,2,12,0.7,54.9,M,17.0,M,,*79
$GPGGA,150729,5926.1050,N,02450.1311,E,2,12,0.7,55.4,M,17.0,M,,*72
$GPGGA,150731,5926.1051,N,02450.1311,E,2,12,0.7,55.7,M,17.0,M,,*79
$GPGGA,150733,5926.1051,N,02450.1314,E,2,12,0.7,55.9,M,17.0,M,,*70
$GPGGA,150736,5926.1049,N,02450.1320,E,2,12,0.7,55.8,M,17.0,M,,*7A
$GPGGA,150738,5926.1050,N,02450.1323,E,2,12,0.7,55.7,M,17.0,M,,*70
$GPGGA,150740,5926.1051,N,02450.1326,E,2,12,0.7,55.5,M,17.0,M,,*79
$GPGGA,150742,5926.1052,N,02450.1327,E,2,12,0.7,55.3,M,17.0,M,,*7F
$GPGGA,150744,5926.1052,N,02450.1328,E,2,12,0.7,55.1,M,17.0,M,,*74
$GPGGA,150746,5926.1053,N,02450.1329,E,2,12,0.7,54.9,M,17.0,M,,*7F
$GPGGA,150748,5926.1056,N,02450.1330,E,2,12,0.7,54.4,M,17.0,M,,*71
$GPGGA,150750,5926.1059,N,02450.1332,E,2,12,0.7,54.1,M,17.0,M,,*70
$GPGGA,150752,5926.1061,N,02450.1335,E,2,12,0.9,53.9,M,17.0,M,,*7F
$GPGGA,150754,5926.1062,N,02450.1338,E,2,12,0.9,53.6,M,17.0,M,,*78
$GPGGA,150756,5926.1061,N,02450.1343,E,2,12,0.9,53.5,M,17.0,M,,*76
$GPGGA,150758,5926.1061,N,02450.1348,E,2,12,0.9,53.4,M,17.0,M,,*72
$GPGGA,150800,5926.1061,N,02450.1351,E,2,12,0.9,53.5,M,17.0,M,,*79
$GPGGA,150802,5926.1060,N,02450.1353,E,2,12,0.9,53.6,M,17.0,M,,*7B
$GPGGA,150804,5926.1058,N,02450.1355,E,2,12,0.9,53.7,M,17.0,M,,*71
$GPGGA,150806,5926.1057,N,02450.1358,E,2,12,0.9,53.6,M,17.0,M,,*70
$GPGGA,150808,5926.1056,N,02450.1361,E,2,12,0.9,53.6,M,17.0,M,,*75
$GPGGA,150811,5926.1056,N,02450.1366,E,2,12,0.9,53.4,M,17.0,M,,*78
$GPGGA,150813,5926.1055,N,02450.1368,E,2,12,0.9,53.6,M,17.0,M,,*75
$GPGGA,150815,5926.1057,N,02450.1374,E,2,12,0.9,53.6,M,17.0,M,,*7C
$GPGGA,150817,5926.1057,N,02450.1378,E,2,12,0.9,54.0,M,17.0,M,,*73
$GPGGA,150819,5926.1057,N,02450.1379,E,2,12,0.9,54.1,M,17.0,M,,*7D
$GPGGA,150821,5926.1058,N,02450.1381,E,2,12,0.9,54.6,M,17.0,M,,*79
$GPGGA,150823,5926.1060,N,02450.1384,E,2,12,0.9,54.6,M,17.0,M,,*75
$GPGGA,150825,5926.1061,N,02450.1385,E,2,12,0.9,54.4,M,17.0,M,,*71
$GPGGA,150827,5926.1061,N,02450.1384,E,2,12,0.9,54.6,M,17.0,M,,*70
$GPGGA,150829,5926.1060,N,02450.1382,E,2,12,0.8,54.7,M,17.0,M,,*79
$GPGGA,150831,5926.1059,N,02450.1383,E,2,12,0.9,54.8,M,17.0,M,,*75
$GPGGA,150834,5926.1058,N,02450.1388,E,2,12,0.8,54.9,M,17.0,M,,*7A
$GPGGA,150836,5926.1058,N,02450.1391,E,2,12,0.8,55.1,M,17.0,M,,*79
$GPGGA,150838,5926.1057,N,02450.1391,E,2,12,0.8,55.5,M,17.0,M,,*7C
$GPGGA,150840,5926.1057,N,02450.1387,E,2,12,0.8,55.8,M,17.0,M,,*79
$GPGGA,150842,5926.1057,N,02450.1385,E,2,12,0.7,55.9,M,17.0,M,,*77
$GPGGA,150844,5926.1056,N,02450.1384,E,2,12,0.7,56.2,M,17.0,M,,*79
$GPGGA,150847,5926.1056,N,02450.1386,E,2,12,0.7,56.6,M,17.0,M,,*7C
$GPGGA,150849,5926.1057,N,02450.1384,E,2,12,0.7,56.8,M,17.0,M,,*7F
$GPGGA,150851,5926.1057,N,02450.1381,E,2,12,0.7,56.5,M,17.0,M,,*7E
$GPGGA,150853,5926.1056,N,02450.1380,E,2,12,0.7,56.6,M,17.0,M,,*7F
$GPGGA,150855,5926.1056,N,02450.1381,E,2,12,0.8,56.4,M,17.0,M,,*75
$GPGGA,150858,5926.1057,N,02450.1387,E,2,12,0.8,55.9,M,17.0,M,,*71
$GPGGA,150900,5926.1058,N,02450.1389,E,2,12,0.8,55.9,M,17.0,M,,*7C
$GPGGA,150902,5926.1060,N,02450.1390,E,2,12,0.8,55.7,M,17.0,M,,*73
$GPGGA,150904,5926.1060,N,02450.1390,E,2,12,0.8,55.6,M,17.0,M,,*74
$GPGGA,150906,5926.1059,N,02450.1388,E,2,12,0.8,55.7,M,17.0,M,,*74
$GPGGA,150908,5926.1060,N,02450.1386,E,2,12,0.8,56.1,M,17.0,M,,*7B
$GPGGA,150910,5926.1062,N,02450.1385,E,1,12,0.7,56.3,M,17.0,M,,*7D
$GPGGA,150912,5926.1063,N,02450.1384,E,1,12,0.7,56.4,M,17.0,M,,*78
$GPGGA,150914,5926.1063,N,02450.1384,E,1,12,0.7,56.4,M,17.0,M,,*7E
$GPGGA,150916,5926.1062,N,02450.1382,E,1,12,0.7,56.6,M,17.0,M,,*79
$GPGGA,150918,5926.1061,N,02450.1383,E,1,12,0.7,56.7,M,17.0,M,,*74
$GPGGA,150920,5926.1060,N,02450.1387,E,1,12,0.8,56.9,M,17.0,M,,*7B
$GPGGA,150923,5926.1059,N,02450.1385,E,1,12,0.8,57.1,M,17.0,M,,*79
$GPGGA,150925,5926.1057,N,02450.1383,E,1,12,0.8,57.1,M,17.0,M,,*77
$GPGGA,150927,5926.1057,N,02450.1382,E,1,12,0.8,57.0,M,17.0,M,,*75
$GPGGA,150929,5926.1055,N,02450.1381,E,1,12,0.8,57.2,M,17.0,M,,*78
$GPGGA,150931,5926.1056,N,02450.1382,E,1,12,0.8,57.5,M,17.0,M,,*76
$GPGGA,150934,5926.1057,N,02450.1380,E,1,12,0.8,57.2,M,17.0,M,,*77
$GPGGA,150936,5926.1058,N,02450.1378,E,1,12,0.8,57.0,M,17.0,M,,*7F
$GPGGA,150938,5926.1058,N,02450.1380,E,1,12,0.8,56.9,M,17.0,M,,*7E
$GPGGA,150940,5926.1058,N,02450.1380,E,1,12,0.8,57.1,M,17.0,M,,*78
$GPGGA,150942,5926.1058,N,02450.1382,E,1,12,0.8,57.3,M,17.0,M,,*7A
$GPGGA,150944,5926.1057,N,02450.1385,E,1,12,0.8,57.1,M,17.0,M,,*76
$GPGGA,150947,5926.1055,N,02450.1388,E,1,12,0.8,57.1,M,17.0,M,,*7A
$GPGGA,150949,5926.1056,N,02450.1387,E,1,12,0.8,57.2,M,17.0,M,,*7B
$GPGGA,150951,5926.1058,N,02450.1389,E,1,12,0.8,57.4,M,17.0,M,,*74
$GPGGA,150953,5926.1058,N,02450.1389,E,1,12,0.8,57.6,M,17.0,M,,*74
$GPGGA,150955,5926.1058,N,02450.1391,E,1,12,0.8,57.5,M,17.0,M,,*78
$GPGGA,150958,5926.1059,N,02450.1391,E,1,12,0.7,57.5,M,17.0,M,,*7B
$GPGGA,151000,5926.1060,N,02450.1394,E,1,12,0.7,57.7,M,17.0,M,,*73
$GPGGA,151002,5926.1061,N,02450.1395,E,1,12,0.7,58.0,M,17.0,M,,*79
$GPGGA,151004,5926.1060,N,02450.1393,E,1,12,0.8,58.6,M,17.0,M,,*71
$GPGGA,151006,5926.1058,N,02450.1390,E,1,12,0.8,59.0,M,17.0,M,,*7C
$GPGGA,151008,5926.1056,N,02450.1385,E,1,12,0.8,59.4,M,17.0,M,,*7C
$GPGGA,151010,5926.1056,N,02450.1382,E,1,12,0.8,60.0,M,17.0,M,,*7C
$GPGGA,151012,5926.1053,N,02450.1384,E,1,12,0.8,61.0,M,17.0,M,,*7C
$GPGGA,151014,5926.1051,N,02450.1385,E,1,12,0.8,61.6,M,17.0,M,,*7F
$GPGGA,151016,5926.1049,N,02450.1386,E,1,12,0.8,61.5,M,17.0,M,,*74
$GPGGA,151018,5926.1044,N,02450.1383,E,1,12,0.9,61.2,M,17.0,M,,*74
$GPGGA,151020,5926.1040,N,02450.1381,E,1,12,0.8,61.2,M,17.0,M,,*78
$GPGGA,151022,5926.1038,N,02450.1382,E,1,12,0.8,61.4,M,17.0,M,,*70
$GPGGA,151024,5926.1035,N,02450.1386,E,1,12,0.8,61.4,M,17.0,M,,*7F
$GPGGA,151026,5926.1032,N,02450.1389,E,1,12,0.9,61.2,M,17.0,M,,*72
$GPGGA,151028,5926.1031,N,02450.1390,E,1,12,0.8,60.9,M,17.0,M,,*7C
$GPGGA,151030,5926.1030,N,02450.1389,E,1,12,0.8,60.8,M,17.0,M,,*7D
$GPGGA,151032,5926.1029,N,02450.1389,E,1,12,0.8,61.0,M,17.0,M,,*7E
$GPGGA,151034,5926.1030,N,02450.1391,E,1,12,0.8,60.9,M,17.0,M,,*71
$GPGGA,151036,5926.1030,N,02450.1395,E,1,12,0.8,61.1,M,17.0,M,,*7E
$GPGGA,151038,5926.1031,N,02450.1395,E,1,12,0.8,61.0,M,17.0,M,,*70
$GPGGA,151040,5926.1033,N,02450.1391,E,1,12,0.8,61.1,M,17.0,M,,*78
$GPGGA,151042,5926.1035,N,02450.1387,E,1,12,0.8,61.4,M,17.0,M,,*7E
$GPGGA,151045,5926.1036,N,02450.1385,E,1,12,0.8,61.7,M,17.0,M,,*7B
$GPGGA,151047,5926.1035,N,02450.1383,E,1,12,0.8,61.8,M,17.0,M,,*73
$GPGGA,151049,5926.1034,N,02450.1381,E,1,12,0.8,61.8,M,17.0,M,,*7E
$GPGGA,151051,5926.1035,N,02450.1378,E,1,12,0.8,61.8,M,17.0,M,,*70
$GPGGA,151053,5926.1038,N,02450.1376,E,1,12,0.8,61.9,M,17.0,M,,*70
$GPGGA,151055,5926.1040,N,02450.1374,E,1,12,0.8,61.7,M,17.0,M,,*75
$GPGGA,151057,5926.1041,N,02450.1375,E,1,12,0.9,61.2,M,17.0,M,,*73
$GPGGA,151059,5926.1042,N,02450.1373,E,1,12,0.8,60.5,M,17.0,M,,*7F
$GPGGA,151101,5926.1042,N,02450.1367,E,1,12,0.8,60.0,M,17.0,M,,*73
$GPGGA,151103,5926.1043,N,02450.1361,E,1,12,0.8,59.7,M,17.0,M,,*7B
$GPGGA,151105,5926.1045,N,02450.1357,E,1,12,0.8,59.5,M,17.0,M,,*7C
$GPGGA,151107,5926.1048,N,02450.1353,E,1,12,0.8,59.3,M,17.0,M,,*71
$GPGGA,151109,5926.1050,N,02450.1350,E,1,12,0.7,58.9,M,17.0,M,,*71
$GPGGA,151111,5926.1052,N,02450.1348,E,1,12,0.8,58.5,M,17.0,M,,*70
$GPGGA,151113,5926.1056,N,02450.1347,E,1,12,0.8,58.3,M,17.0,M,,*7F
$GPGGA,151115,5926.1058,N,02450.1347,E,1,12,0.8,58.2,M,17.0,M,,*76
$GPGGA,151117,5926.1060,N,02450.1349,E,1,12,0.8,58.2,M,17.0,M,,*71
$GPGGA,151119,5926.1060,N,02450.1350,E,1,12,0.8,58.0,M,17.0,M,,*75
$GPGGA,151121,5926.1060,N,02450.1352,E,1,12,0.8,57.6,M,17.0,M,,*75
$GPGGA,151124,5926.1060,N,02450.1356,E,1,12,0.8,57.5,M,17.0,M,,*77
$GPGGA,151126,5926.1058,N,02450.1359,E,1,12,0.8,57.6,M,17.0,M,,*72
$GPGGA,151128,5926.1058,N,02450.1362,E,1,12,0.7,57.8,M,17.0,M,,*75
$GPGGA,151130,5926.1057,N,02450.1365,E,1,12,0.8,57.7,M,17.0,M,,*74
$GPGGA,151132,5926.1057,N,02450.1365,E,1,12,0.8,57.6,M,17.0,M,,*77
$GPGGA,151134,5926.1057,N,02450.1365,E,1,12,0.8,57.6,M,17.0,M,,*71
$GPGGA,151136,5926.1056,N,02450.1363,E,1,12,0.8,57.6,M,17.0,M,,*74
$GPGGA,151138,5926.1056,N,02450.1360,E,1,12,0.8,57.5,M,17.0,M,,*7A
$GPGGA,151140,5926.1056,N,02450.1359,E,1,12,0.8,57.4,M,17.0,M,,*7E
$GPGGA,151142,5926.1054,N,02450.1358,E,1,12,0.8,57.5,M,17.0,M,,*7E
$GPGGA,151144,5926.1053,N,02450.1357,E,1,12,0.8,57.4,M,17.0,M,,*71
$GPGGA,151147,5926.1049,N,02450.1352,E,1,12,0.8,57.6,M,17.0,M,,*7E
$GPGGA,151149,5926.1047,N,02450.1349,E,1,12,0.8,57.6,M,17.0,M,,*74
$GPGGA,151151,5926.1047,N,02450.1352,E,1,12,0.8,57.5,M,17.0,M,,*74
$GPGGA,151153,5926.1048,N,02450.1353,E,1,12,0.8,57.0,M,17.0,M,,*7D
$GPGGA,151155,5926.1050,N,02450.1355,E,1,12,0.8,56.9,M,17.0,M,,*7C
$GPGGA,151157,5926.1050,N,02450.1356,E,1,12,0.8,56.9,M,17.0,M,,*7D
$GPGGA,151159,5926.1050,N,02450.1356,E,1,12,0.8,57.2,M,17.0,M,,*79
$GPGGA,151201,5926.1049,N,02450.1362,E,1,12,0.8,57.3,M,17.0,M,,*79
$GPGGA,151203,5926.1048,N,02450.1366,E,1,12,0.8,57.0,M,17.0,M,,*7D
$GPGGA,151205,5926.1046,N,02450.1371,E,1,12,0.8,57.1,M,17.0,M,,*72
$GPGGA,151208,5926.1042,N,02450.1375,E,1,12,0.8,57.7,M,17.0,M,,*79
$GPGGA,151210,5926.1039,N,02450.1377,E,1,12,0.8,58.0,M,17.0,M,,*76
$GPGGA,151212,5926.1038,N,02450.1375,E,1,12,0.9,58.3,M,17.0,M,,*75
$GPGGA,151214,5926.1037,N,02450.1376,E,1,12,0.9,58.6,M,17.0,M,,*7A
$GPGGA,151216,5926.1037,N,02450.1374,E,1,12,0.9,58.9,M,17.0,M,,*75
$GPGGA,151218,5926.1037,N,02450.1369,E,1,12,0.9,59.0,M,17.0,M,,*7F
$GPGGA,151220,5926.1037,N,02450.1363,E,1,12,0.9,59.3,M,17.0,M,,*7D
$GPGGA,151222,5926.1036,N,02450.1359,E,1,12,0.9,59.7,M,17.0,M,,*73
$GPGGA,151224,5926.1034,N,02450.1356,E,1,12,0.9,59.6,M,17.0,M,,*79
$GPGGA,151226,5926.1035,N,02450.1356,E,1,12,0.9,59.2,M,17.0,M,,*7E
$GPGGA,151228,5926.1035,N,02450.1355,E,1,12,0.9,58.8,M,17.0,M,,*78
$GPGGA,151230,5926.1034,N,02450.1357,E,1,12,0.9,58.6,M,17.0,M,,*7C
$GPGGA,151232,5926.1034,N,02450.1355,E,1,12,0.9,58.6,M,17.0,M,,*7C
$GPGGA,151234,5926.1036,N,02450.1352,E,1,12,0.9,58.7,M,17.0,M,,*7E
$GPGGA,151236,5926.1037,N,02450.1350,E,1,12,0.9,58.6,M,17.0,M,,*7E
$GPGGA,151238,5926.1040,N,02450.1354,E,1,12,0.9,58.8,M,17.0,M,,*7A
$GPGGA,151240,5926.1042,N,02450.1357,E,1,12,0.9,59.1,M,17.0,M,,*7C
$GPGGA,151242,5926.1044,N,02450.1358,E,1,12,0.9,59.3,M,17.0,M,,*75
$GPGGA,151244,5926.1047,N,02450.1359,E,1,12,0.9,59.7,M,17.0,M,,*75
$GPGGA,151247,5926.1049,N,02450.1357,E,1,12,0.9,60.1,M,17.0,M,,*7A
$GPGGA,151249,5926.1052,N,02450.1359,E,1,12,0.9,60.3,M,17.0,M,,*72
$GPGGA,151251,5926.1054,N,02450.1358,E,1,12,0.9,60.5,M,17.0,M,,*7A
$GPGGA,151253,5926.1058,N,02450.1357,E,1,12,0.9,61.2,M,17.0,M,,*7D
$GPGGA,151255,5926.1061,N,02450.1354,E,1,12,0.9,61.5,M,17.0,M,,*75
$GPGGA,151257,5926.1064,N,02450.1351,E,1,12,0.9,61.4,M,17.0,M,,*76
$GPGGA,151259,5926.1067,N,02450.1349,E,1,12,0.9,60.9,M,17.0,M,,*7E
$GPGGA,151301,5926.1070,N,02450.1347,E,1,12,0.9,60.7,M,17.0,M,,*74
$GPGGA,151303,5926.1072,N,02450.1336,E,1,12,0.9,60.8,M,17.0,M,,*7D
$GPGGA,151305,5926.1074,N,02450.1327,E,1,12,0.9,60.6,M,17.0,M,,*73
$GPGGA,151307,5926.1075,N,02450.1322,E,1,12,0.8,60.2,M,17.0,M,,*70
$GPGGA,151310,5926.1076,N,02450.1322,E,1,12,0.8,59.8,M,17.0,M,,*75
$GPGGA,151312,5926.1075,N,02450.1327,E,1,12,0.8,59.5,M,17.0,M,,*7C
$GPGGA,151314,5926.1073,N,02450.1330,E,1,12,0.8,59.3,M,17.0,M,,*7C
$GPGGA,151316,5926.1072,N,02450.1332,E,1,12,1.0,58.9,M,17.0,M,,*7F
$GPGGA,151318,5926.1070,N,02450.1335,E,1,12,1.0,58.8,M,17.0,M,,*75
$GPGGA,151320,5926.1068,N,02450.1335,E,1,12,1.0,58.8,M,17.0,M,,*77
$GPGGA,151322,5926.1068,N,02450.1337,E,1,12,1.0,58.7,M,17.0,M,,*78
$GPGGA,151324,5926.1066,N,02450.1335,E,1,12,0.9,58.7,M,17.0,M,,*7A
$GPGGA,151326,5926.1064,N,02450.1333,E,1,12,0.9,58.4,M,17.0,M,,*7F
$GPGGA,151328,5926.1061,N,02450.1329,E,1,12,0.8,58.1,M,17.0,M,,*7B
$GPGGA,151330,5926.1059,N,02450.1327,E,1,12,0.8,57.9,M,17.0,M,,*70
$GPGGA,151332,5926.1057,N,02450.1321,E,1,12,0.8,57.5,M,17.0,M,,*76
$GPGGA,151334,5926.1056,N,02450.1321,E,1,12,0.8,57.1,M,17.0,M,,*75
$GPGGA,151336,5926.1055,N,02450.1321,E,1,12,0.8,57.0,M,17.0,M,,*75
$GPGGA,151338,5926.1055,N,02450.1319,E,1,12,0.8,56.6,M,17.0,M,,*77
$GPGGA,151340,5926.1055,N,02450.1318,E,1,12,0.8,56.3,M,17.0,M,,*7C
$GPGGA,151342,5926.1053,N,02450.1318,E,1,12,0.8,55.9,M,17.0,M,,*71
$GPGGA,151344,5926.1051,N,02450.1319,E,1,12,0.8,55.8,M,17.0,M,,*75
$GPGGA,151347,5926.1048,N,02450.1320,E,1,12,0.9,56.0,M,17.0,M,,*7E
$GPGGA,151349,5926.1047,N,02450.1317,E,1,12,0.9,55.9,M,17.0,M,,*71
$GPGGA,151351,5926.1047,N,02450.1314,E,1,12,0.9,55.9,M,17.0,M,,*7B
$GPGGA,151353,5926.1050,N,02450.1315,E,1,12,0.9,55.8,M,17.0,M,,*7F
$GPGGA,151355,5926.1048,N,02450.1314,E,1,12,0.9,55.2,M,17.0,M,,*7B
$GPGGA,151357,5926.1047,N,02450.1316,E,1,12,0.9,54.8,M,17.0,M,,*7F
$GPGGA,151359,5926.1045,N,02450.1322,E,1,12,0.9,54.0,M,17.0,M,,*7C
$GPGGA,151401,5926.1044,N,02450.1331,E,1,12,0.9,53.2,M,17.0,M,,*70
$GPGGA,151403,5926.1041,N,02450.1336,E,1,12,0.9,52.6,M,17.0,M,,*75
$GPGGA,151405,5926.1040,N,02450.1339,E,1,12,0.9,52.2,M,17.0,M,,*79
$GPGGA,151407,5926.1039,N,02450.1343,E,1,12,0.9,52.0,M,17.0,M,,*7A
$GPGGA,151410,5926.1037,N,02450.1345,E,1,12,0.9,51.4,M,17.0,M,,*73
$GPGGA,151412,5926.1037,N,02450.1346,E,1,12,0.8,51.1,M,17.0,M,,*76
$GPGGA,151414,5926.1037,N,02450.1346,E,1,12,0.8,50.9,M,17.0,M,,*79
$GPGGA,151416,5926.1038,N,02450.1347,E,1,12,0.8,50.9,M,17.0,M,,*75
$GPGGA,151418,5926.1039,N,02450.1347,E,1,12,0.8,51.0,M,17.0,M,,*72
$GPGGA,151420,5926.1039,N,02450.1349,E,1,12,0.8,50.9,M,17.0,M,,*7F
$GPGGA,151423,5926.1042,N,02450.1351,E,1,12,0.8,50.4,M,17.0,M,,*74
$GPGGA,151425,5926.1044,N,02450.1353,E,1,12,0.8,50.2,M,17.0,M,,*70
$GPGGA,151427,5926.1046,N,02450.1357,E,1,12,0.8,50.3,M,17.0,M,,*75
$GPGGA,151429,5926.1048,N,02450.1361,E,1,12,0.8,50.6,M,17.0,M,,*75
$GPGGA,151431,5926.1048,N,02450.1361,E,1,12,0.8,50.5,M,17.0,M,,*7F
$GPGGA,151433,5926.1050,N,02450.1357,E,1,12,0.8,50.3,M,17.0,M,,*77
$GPGGA,151435,5926.1052,N,02450.1354,E,1,12,0.9,50.3,M,17.0,M,,*71
$GPGGA,151437,5926.1054,N,02450.1351,E,1,12,0.9,50.6,M,17.0,M,,*75
$GPGGA,151439,5926.1056,N,02450.1348,E,1,12,0.9,51.1,M,17.0,M,,*77
$GPGGA,151441,5926.1055,N,02450.1341,E,1,12,0.9,51.2,M,17.0,M,,*71
$GPGGA,151443,5926.1055,N,02450.1335,E,1,12,0.9,50.6,M,17.0,M,,*75
$GPGGA,151446,5926.1060,N,02450.1328,E,1,12,0.9,50.1,M,17.0,M,,*7D
$GPGGA,151448,5926.1062,N,02450.1327,E,1,12,0.9,50.3,M,17.0,M,,*7C
$GPGGA,151450,5926.1063,N,02450.1323,E,1,12,0.9,50.7,M,17.0,M,,*74
$GPGGA,151452,5926.1059,N,02450.1318,E,1,12,0.9,50.9,M,17.0,M,,*79
$GPGGA,151454,5926.1056,N,02450.1315,E,1,12,0.9,50.9,M,17.0,M,,*7D
$GPGGA,151456,5926.1055,N,02450.1315,E,1,12,0.9,51.1,M,17.0,M,,*75
$GPGGA,151458,5926.1054,N,02450.1317,E,1,12,0.9,51.1,M,17.0,M,,*78
$GPGGA,151500,5926.1053,N,02450.1317,E,1,12,0.9,51.2,M,17.0,M,,*70
$GPGGA,151502,5926.1053,N,02450.1317,E,1,12,0.9,51.1,M,17.0,M,,*71
$GPGGA,151504,5926.1052,N,02450.1314,E,1,12,0.9,50.7,M,17.0,M,,*72
$GPGGA,151506,5926.1053,N,02450.1314,E,1,12,0.9,50.2,M,17.0,M,,*74
$GPGGA,151508,5926.1055,N,02450.1318,E,1,12,0.8,49.9,M,17.0,M,,*72
$GPGGA,151510,5926.1056,N,02450.1320,E,1,12,0.8,49.6,M,17.0,M,,*7C
$GPGGA,151512,5926.1056,N,02450.1321,E,1,12,0.8,49.5,M,17.0,M,,*7C
$GPGGA,151514,5926.1056,N,02450.1317,E,1,12,0.8,49.0,M,17.0,M,,*7A
$GPGGA,151516,5926.1056,N,02450.1314,E,1,12,0.8,48.6,M,17.0,M,,*7C
$GPGGA,151518,5926.1058,N,02450.1314,E,1,12,0.8,48.5,M,17.0,M,,*7F
$GPGGA,151520,5926.1060,N,02450.1315,E,1,12,0.9,48.5,M,17.0,M,,*7F
$GPGGA,151522,5926.1062,N,02450.1317,E,1,12,0.9,48.6,M,17.0,M,,*7E
$GPGGA,151524,5926.1064,N,02450.1319,E,1,12,0.9,48.4,M,17.0,M,,*72
$GPGGA,151526,5926.1064,N,02450.1323,E,1,12,0.9,48.4,M,17.0,M,,*79
$GPGGA,151528,5926.1061,N,02450.1337,E,1,12,1.1,47.8,M,17.0,M,,*7D
$GPGGA,151530,5926.1059,N,02450.1350,E,1,12,0.9,47.4,M,17.0,M,,*7B
$GPGGA,151532,5926.1059,N,02450.1358,E,1,12,0.9,47.5,M,17.0,M,,*70
$GPGGA,151535,5926.1059,N,02450.1359,E,1,12,0.9,47.5,M,17.0,M,,*76
$GPGGA,151537,5926.1058,N,02450.1358,E,1,12,0.9,47.3,M,17.0,M,,*72
$GPGGA,151539,5926.1056,N,02450.1358,E,1,12,0.9,46.9,M,17.0,M,,*79
$GPGGA,151541,5926.1056,N,02450.1358,E,1,12,0.9,46.8,M,17.0,M,,*77
$GPGGA,151543,5926.1057,N,02450.1359,E,1,12,0.8,46.8,M,17.0,M,,*74
$GPGGA,151545,5926.1057,N,02450.1356,E,1,12,0.8,46.7,M,17.0,M,,*72
$GPGGA,151547,5926.1056,N,02450.1353,E,1,12,0.8,46.8,M,17.0,M,,*7B
$GPGGA,151549,5926.1054,N,02450.1354,E,1,12,0.8,47.1,M,17.0,M,,*78
$GPGGA,151551,5926.1053,N,02450.1357,E,1,12,0.8,47.4,M,17.0,M,,*70
$GPGGA,151553,5926.1051,N,02450.1361,E,1,12,0.8,47.6,M,17.0,M,,*77
$GPGGA,151555,5926.1051,N,02450.1364,E,1,12,0.8,47.8,M,17.0,M,,*7A
$GPGGA,151557,5926.1052,N,02450.1363,E,1,12,0.8,48.1,M,17.0,M,,*7A
$GPGGA,151600,5926.1052,N,02450.1357,E,1,12,0.8,49.2,M,17.0,M,,*7E
$GPGGA,151602,5926.1052,N,02450.1353,E,1,12,0.8,49.9,M,17.0,M,,*73
$GPGGA,151604,5926.1053,N,02450.1352,E,1,12,0.8,50.3,M,17.0,M,,*77
$GPGGA,151606,5926.1054,N,02450.1348,E,1,12,0.8,50.5,M,17.0,M,,*7F
$GPGGA,151609,5926.1056,N,02450.1345,E,1,12,0.8,51.2,M,17.0,M,,*79
$GPGGA,151611,5926.1057,N,02450.1341,E,1,12,0.8,51.7,M,17.0,M,,*70
$GPGGA,151613,5926.1057,N,02450.1342,E,1,12,0.8,52.0,M,17.0,M,,*75
$GPGGA,151615,5926.1057,N,02450.1340,E,1,12,0.8,52.6,M,17.0,M,,*77
$GPGGA,151617,5926.1061,N,02450.1339,E,1,12,0.9,52.0,M,17.0,M,,*79
$GPGGA,151619,5926.1064,N,02450.1341,E,1,12,1.1,51.3,M,17.0,M,,*74
$GPGGA,151621,5926.1065,N,02450.1341,E,1,12,1.1,51.1,M,17.0,M,,*7C
$GPGGA,151623,5926.1064,N,02450.1346,E,1,12,1.1,51.1,M,17.0,M,,*78
$GPGGA,151625,5926.1062,N,02450.1348,E,1,12,1.1,51.3,M,17.0,M,,*74
$GPGGA,151627,5926.1061,N,02450.1346,E,1,12,1.1,51.3,M,17.0,M,,*7B
$GPGGA,151629,5926.1061,N,02450.1350,E,1,12,1.1,51.2,M,17.0,M,,*73
$GPGGA,151631,5926.1062,N,02450.1350,E,1,12,0.9,51.4,M,17.0,M,,*76
$GPGGA,151633,5926.1063,N,02450.1350,E,1,12,0.9,51.7,M,17.0,M,,*76
$GPGGA,151635,5926.1062,N,02450.1348,E,1,12,0.9,52.1,M,17.0,M,,*7D
$GPGGA,151637,5926.1061,N,02450.1344,E,1,12,0.9,52.5,M,17.0,M,,*74
$GPGGA,151639,5926.1062,N,02450.1340,E,1,12,0.9,52.8,M,17.0,M,,*70
$GPGGA,151641,5926.1062,N,02450.1337,E,1,12,0.9,53.1,M,17.0,M,,*77
$GPGGA,151643,5926.1063,N,02450.1333,E,1,12,0.9,53.3,M,17.0,M,,*72
$GPGGA,151645,5926.1062,N,02450.1330,E,1,12,0.9,53.3,M,17.0,M,,*76
$GPGGA,151647,5926.1061,N,02450.1327,E,1,12,0.9,53.2,M,17.0,M,,*70
$GPGGA,151649,5926.1059,N,02450.1326,E,1,12,0.9,52.8,M,17.0,M,,*7F
$GPGGA,151651,5926.1058,N,02450.1328,E,1,12,1.1,52.6,M,17.0,M,,*7E
$GPGGA,151653,5926.1056,N,02450.1329,E,1,12,1.4,52.6,M,17.0,M,,*76
$GPGGA,151655,5926.1053,N,02450.1330,E,1,12,0.9,52.9,M,17.0,M,,*7E
$GPGGA,151657,5926.1052,N,02450.1329,E,1,12,0.9,53.3,M,17.0,M,,*7E
$GPGGA,151700,5926.1050,N,02450.1327,E,1,12,0.9,53.6,M,17.0,M,,*74
$GPGGA,151702,5926.1050,N,02450.1328,E,1,12,0.9,53.8,M,17.0,M,,*77
$GPGGA,151704,5926.1049,N,02450.1324,E,1,12,0.9,53.9,M,17.0,M,,*74
$GPGGA,151706,5926.1048,N,02450.1322,E,1,12,0.9,54.2,M,17.0,M,,*7D
$GPGGA,151708,5926.1047,N,02450.1319,E,1,12,0.9,54.5,M,17.0,M,,*73
$GPGGA,151711,5926.1049,N,02450.1322,E,1,12,0.9,54.9,M,17.0,M,,*71
$GPGGA,151713,5926.1054,N,02450.1325,E,1,12,0.9,54.9,M,17.0,M,,*78
$GPGGA,151715,5926.1055,N,02450.1324,E,1,12,0.9,54.4,M,17.0,M,,*73
$GPGGA,151717,5926.1054,N,02450.1323,E,1,12,0.9,53.7,M,17.0,M,,*73
$GPGGA,151719,5926.1051,N,02450.1325,E,1,12,0.9,53.0,M,17.0,M,,*79
$GPGGA,151721,5926.1049,N,02450.1328,E,1,12,0.9,51.9,M,17.0,M,,*7D
$GPGGA,151724,5926.1046,N,02450.1333,E,1,12,0.9,51.4,M,17.0,M,,*70
$GPGGA,151726,5926.1047,N,02450.1334,E,1,12,0.9,51.1,M,17.0,M,,*71
$GPGGA,151728,5926.1048,N,02450.1332,E,1,12,0.9,50.8,M,17.0,M,,*7E
$GPGGA,151730,5926.1048,N,02450.1330,E,1,12,0.9,50.4,M,17.0,M,,*79
$GPGGA,151732,5926.1046,N,02450.1323,E,1,12,0.9,50.4,M,17.0,M,,*77
$GPGGA,151735,5926.1045,N,02450.1314,E,1,12,0.9,50.8,M,17.0,M,,*7B
$GPGGA,151737,5926.1046,N,02450.1309,E,1,12,0.9,51.1,M,17.0,M,,*7E
$GPGGA,151739,5926.1047,N,02450.1306,E,1,12,0.9,51.4,M,17.0,M,,*7B
$GPGGA,151741,5926.1047,N,02450.1310,E,1,12,0.9,51.2,M,17.0,M,,*75
$GPGGA,151743,5926.1047,N,02450.1316,E,1,12,0.9,50.7,M,17.0,M,,*75
$GPGGA,151745,5926.1046,N,02450.1323,E,1,12,1.1,50.2,M,17.0,M,,*78
$GPGGA,151747,5926.1046,N,02450.1326,E,1,12,1.1,49.7,M,17.0,M,,*72
$GPGGA,151749,5926.1046,N,02450.1330,E,1,12,1.1,49.2,M,17.0,M,,*7E
$GPGGA,151751,5926.1046,N,02450.1336,E,1,12,1.1,48.9,M,17.0,M,,*7B
$GPGGA,151753,5926.1042,N,02450.1339,E,1,12,1.1,48.4,M,17.0,M,,*7F
$GPGGA,151755,5926.1037,N,02450.1342,E,1,12,1.1,48.4,M,17.0,M,,*77
$GPGGA,151757,5926.1034,N,02450.1342,E,1,12,1.1,48.6,M,17.0,M,,*74
$GPGGA,151800,5926.1029,N,02450.1337,E,1,12,1.1,49.2,M,17.0,M,,*72
$GPGGA,151802,5926.1031,N,02450.1336,E,1,12,1.1,49.0,M,17.0,M,,*7A
$GPGGA,151804,5926.1031,N,02450.1335,E,1,12,0.9,49.0,M,17.0,M,,*76
$GPGGA,151806,5926.1033,N,02450.1334,E,1,12,0.9,49.2,M,17.0,M,,*75
$GPGGA,151808,5926.1035,N,02450.1333,E,1,12,0.9,49.3,M,17.0,M,,*7B
$GPGGA,151810,5926.1038,N,02450.1331,E,1,12,0.9,49.6,M,17.0,M,,*78
$GPGGA,151813,5926.1042,N,02450.1331,E,1,12,0.9,49.9,M,17.0,M,,*79
$GPGGA,151815,5926.1042,N,02450.1331,E,1,12,0.9,49.8,M,17.0,M,,*7E
$GPGGA,151817,5926.1043,N,02450.1339,E,1,12,0.9,49.2,M,17.0,M,,*7F
$GPGGA,151819,5926.1040,N,02450.1334,E,1,12,1.1,49.0,M,17.0,M,,*74
$GPGGA,151821,5926.1038,N,02450.1328,E,1,12,1.1,49.3,M,17.0,M,,*7E
$GPGGA,151823,5926.1038,N,02450.1321,E,1,12,1.1,49.8,M,17.0,M,,*7E
$GPGGA,151826,5926.1037,N,02450.1315,E,1,12,1.1,49.1,M,17.0,M,,*7A
$GPGGA,151828,5926.1042,N,02450.1312,E,1,12,1.1,49.1,M,17.0,M,,*71
