=~=~=~=~=~=~=~=~=~=~=~= PuTTY log 2021.03.26 16:51:04 =~=~=~=~=~=~=~=~=~=~=~=
b"b¢‚R¢25
$GPGLL,5926.1064,N,02450.1362,E,145103,A,A*4B
$GPBOD,,T,,M,,*47
$GPBWC,145103,,,,,,T,,M,,N,,A*79
$GPVTG,195.4,T,186.2,M,0.0,N,0.0,K,A*27
$GPXTE,A,A,,,N,A*51
$PGRME,3.2,M,7.2,M,7.8,M*25
$PGRMZ,167,f,3*1B
$PGRMM,WGS 84*06
$HCHDG,,,,9.1,E*0F
$GPRTE,1,1,c,*37
$GPRMC,145105,A,5926.1064,N,02450.1365,E,0.0,195.4,260321,9.1,E,A*13
$GPRMB,A,,,,,,,,,,,,V,A*1C
$GPGGA,145105,5926.1064,N,02450.1365,E,1,11,0.9,50.7,M,17.0,M,,*72
$GPGSA,A,3,02,04,05,09,16,18,20,25,26,29,31,,1.8,0.9,1.6*39
$GPGSV,3,1,11,02,13,050,40,04,08,319,25,05,33,087,48,09,10,351,22*73
$GPGSV,3,2,11,16,18,304,36,18,36,198,32,20,01,165,00,25,31,149,44*71
$GPGSV,3,3,11,26,44,292,36,29,77,101,37,31,32,240,40*4F
$GPGLL,5926.1064,N,02450.1365,E,145105,A,A*4A
$GPBOD,,T,,M,,*47
$GPBWC,145105,,,,,,T,,M,,N,,A*7F
$GPVTG,195.4,T,186.2,M,0.0,N,0.0,K,A*27
$GPXTE,A,A,,,N,A*51
$PGRME,3.2,M,7.2,M,7.8,M*25
$PGRMZ,166,f,3*1A
$PGRMM,WGS 84*06
$HCHDG,,,,9.1,E*0F
$GPRTE,1,1,c,*37
$GPRMC,145107,A,5926.1064,N,02450.1366,E,0.0,195.4,260321,9.1,E,A*12
$GPRMB,A,,,,,,,,,,,,V,A*1C
$GPGGA,145107,5926.1064,N,02450.1366,E,1,11,0.9,50.7,M,17.0,M,,*73
$GPGSA,A,3,02,04,05,09,16,18,20,25,26,29,31,,1.8,0.9,1.6*39
$GPGSV,3,1,11,02,13,050,40,04,08,319,25,05,33,087,48,09,10,351,23*72
$GPGSV,3,2,11,16,18,304,36,18,36,198,32,20,01,165,00,25,31,149,44*71
$GPGSV,3,3,11,26,44,292,36,29,77,101,37,31,32,240,39*41
$GPGLL,5926.1064,N,02450.1366,E,145107,A,A*4B
$GPBOD,,T,,M,,*47
$GPBWC,145107,,,,,,T,,M,,N,,A*7D
$GPVTG,195.4,T,186.2,M,0.0,N,0.0,K,A*27
$GPXTE,A,A,,,N,A*51
$PGRME,3.2,M,7.2,M,7.8,M*25
$PGRMZ,166,f,3*1A
$PGRMM,WGS 84*06
$HCHDG,,,,9.1,E*0F
$GPRTE,1,1,c,*37
$GPRMC,145110,A,5926.1065,N,02450.1364,E,0.0,195.4,260321,9.1,E,A*17
$GPRMB,A,,,,,,,,,,,,V,A*1C
$GPGGA,145110,5926.1065,N,02450.1364,E,1,11,0.9,50.6,M,17.0,M,,*77
$GPGSA,A,3,02,04,05,09,16,18,20,25,26,29,31,,1.8,0.9,1.6*39
$GPGSV,3,1,11,02,13,050,40,04,08,319,25,05,33,087,48,09,10,351,22*73
$GPGSV,3,2,11,16,18,304,36,18,36,198,31,20,01,165,00,25,31,149,44*72
$GPGSV,3,3,11,26,44,292,36,29,77,101,37,31,32,240,39*41
$GPGLL,5926.1065,N,02450.1364,E,145110,A,A*4E
$GPBOD,,T,,M,,*47
$GPBWC,145110,,,,,,T,,M,,N,,A*7B
$GPVTG,195.4,T,186.2,M,0.0,N,0.0,K,A*27
$GPXTE,A,A,,,N,A*51
$PGRME,3.2,M,7.2,M,7.9,M*24
$PGRMZ,166,f,3*1A
$PGRMM,WGS 84*06
$HCHDG,,,,9.1,E*0F
$GPRTE,1,1,c,*37
$GPRMC,145112,A,5926.1065,N,02450.1362,E,0.0,195.4,260321,9.1,E,A*13
$GPRMB,A,,,,,,,,,,,,V,A*1C
$GPGGA,145112,5926.1065,N,02450.1362,E,1,11,0.9,50.5,M,17.0,M,,*70
$GPGSA,A,3,02,04,05,09,16,18,20,25,26,29,31,,1.8,0.9,1.6*39
$GPGSV,3,1,11,02,13,050,40,04,08,319,24,05,33,087,48,09,10,351,22*72
$GPGSV,3,2,11,16,18,304,36,18,37,198,31,20,01,165,00,25,31,149,44*73
$GPGSV,3,3,11,26,44,292,36,29,77,101,36,31,32,240,39*40
$GPGLL,5926.1065,N,02450.1362,E,145112,A,A*4A
$GPBOD,,T,,M,,*47
$GPBWC,145112,,,,,,T,,M,,N,,A*79
$GPVTG,195.4,T,186.2,M,0.0,N,0.0,K,A*27
$GPXTE,A,A,,,N,A*51
$PGRME,3.2,M,7.2,M,7.9,M*24
$PGRMZ,166,f,3*1A
$PGRMM,WGS 84*06
$HCHDG,,,,9.1,E*0F
$GPRTE,1,1,c,*37
$GPRMC,145114,A,5926.1065,N,02450.1362,E,0.0,195.4,260321,9.1,E,A*15
$GPRMB,A,,,,,,,,,,,,V,A*1C
$GPGGA,145114,5926.1065,N,02450.1362,E,1,11,0.9,50.6,M,17.0,M,,*75
$GPGSA,A,3,02,04,05,09,16,18,20,25,26,29,31,,1.8,0.9,1.6*39
$GPGSV,3,1,11,02,13,050,40,04,08,319,24,05,33,087,48,09,10,351,21*71
$GPGSV,3,2,11,16,18,304,36,18,37,198,31,20,01,165,00,25,31,149,43*74
$GPGSV,3,3,11,26,44,292,36,29,77,101,36,31,32,240,39*40
$GPGLL,5926.1065,N,02450.1362,E,145114,A,A*4C
$GPBOD,,T,,M,,*47
$GPBWC,145114,,,,,,T,,M,,N,,A*7F
$GPVTG,195.4,T,186.2,M,0.0,N,0.0,K,A*27
$GPXTE,A,A,,,N,A*51
$PGRME,3.2,M,7.2,M,7.9,M*24
$PGRMZ,166,f,3*1A
$PGRMM,WGS 84*06
$HCHDG,,,,9.1,E*0F
$GPRTE,1,1,c,*37
$GPRMC,145116,A,5926.1065,N,02450.1364,E,0.0,195.4,260321,9.1,E,A*11
$GPRMB,A,,,,,,,,,,,,V,A*1C
$GPGGA,145116,5926.1065,N,02450.1364,E,1,11,0.9,50.6,M,17.0,M,,*71
$GPGSA,A,3,02,04,05,09,16,18,20,25,26,29,31,,1.9,0.9,1.6*38
$GPGSV,3,1,11,02,13,050,40,04,08,319,24,05,33,087,48,09,10,351,00*72
$GPGSV,3,2,11,16,18,304,36,18,37,198,31,20,01,165,00,25,31,149,43*74
$GPGSV,3,3,11,26,44,292,36,29,77,101,37,31,32,240,39*41
$GPGLL,5926.1065,N,02450.1364,E,145116,A,A*48
$GPBOD,,T,,M,,*47
$GPBWC,145116,,,,,,T,,M,,N,,A*7D
$GPVTG,195.4,T,186.2,M,0.0,N,0.0,K,A*27
$GPXTE,A,A,,,N,A*51
$PGRME,3.3,M,7.2,M,7.9,M*25
$PGRMZ,166,f,3*1A
$PGRMM,WGS 84*06
$HCHDG,,,,9.1,E*0F
$GPRTE,1,1,c,*37
$GPRMC,145118,A,5926.1064,N,02450.1366,E,0.0,195.4,260321,9.1,E,A*1C
$GPRMB,A,,,,,,,,,,,,V,A*1C
$GPGGA,145118,5926.1064,N,02450.1366,E,1,11,0.9,50.7,M,17.0,M,,*7D
$GPGSA,A,3,02,04,05,09,16,18,20,25,26,29,31,,1.8,0.9,1.6*39
$GPGSV,3,1,11,02,13,050,40,04,08,319,23,05,33,087,48,09,10,351,21*76
$GPGSV,3,2,11,16,18,304,36,18,37,198,31,20,01,165,00,25,31,149,43*74
$GPGSV,3,3,11,26,44,292,36,29,77,101,37,31,32,240,39*41
$GPGLL,5926.1064,N,02450.1366,E,145118,A,A*45
$GPBOD,,T,,M,,*47
$GPBWC,145118,,,,,,T,,M,,N,,A*73
$GPVTG,195.4,T,186.2,M,0.0,N,0.0,K,A*27
$GPXTE,A,A,,,N,A*51
$PGRME,3.3,M,7.2,M,7.9,M*25
$PGRMZ,166,f,3*1A
$PGRMM,WGS 84*06
$HCHDG,,,,9.1,E*0F
$GPRTE,1,1,c,*37
$GPRMC,145121,A,5926.1062,N,02450.1365,E,0.0,195.4,260321,9.1,E,A*13
$GPRMB,A,,,,,,,,,,,,V,A*1C
$GPGGA,145121,5926.1062,N,02450.1365,E,1,11,0.9,50.6,M,17.0,M,,*73
$GPGSA,A,3,02,04,05,09,16,18,20,25,26,29,31,,1.8,0.9,1.6*39
$GPGSV,3,1,11,02,13,050,40,04,08,319,23,05,33,087,48,09,10,351,22*75
$GPGSV,3,2,11,16,18,304,36,18,37,198,31,20,01,165,00,25,31,149,42*75
$GPGSV,3,3,11,26,44,292,37,29,77,101,37,31,32,240,39*40
$GPGLL,5926.1062,N,02450.1365,E,145121,A,A*4A
$GPBOD,,T,,M,,*47
$GPBWC,145121,,,,,,T,,M,,N,,A*79
$GPVTG,195.4,T,186.2,M,0.0,N,0.0,K,A*27
$GPXTE,A,A,,,N,A*51
$PGRME,3.3,M,7.2,M,7.9,M*25
$PGRMZ,166,f,3*1A
$PGRMM,WGS 84*06
$HCHDG,,,,9.1,E*0F
$GPRTE,1,1,c,*37
$GPRMC,145123,A,5926.1060,N,02450.1365,E,0.0,195.4,260321,9.1,E,A*13
$GPRMB,A,,,,,,,,,,,,V,A*1C
$GPGGA,145123,5926.1060,N,02450.1365,E,1,11,0.9,50.5,M,17.0,M,,*70
$GPGSA,A,3,02,04,05,09,16,18,20,25,26,29,31,,1.8,0.9,1.6*39
$GPGSV,3,1,11,02,13,050,40,04,08,319,23,05,33,087,48,09,10,351,22*75
$GPGSV,3,2,11,16,18,304,36,18,37,198,31,20,01,165,00,25,31,149,42*75
$GPGSV,3,3,11,26,44,292,37,29,77,101,36,31,32,240,39*41
$GPGLL,5926.1060,N,02450.1365,E,145123,A,A*4A
$GPBOD,,T,,M,,*47
$GPBWC,145123,,,,,,T,,M,,N,,A*7B
$GPVTG,195.4,T,186.2,M,0.0,N,0.0,K,A*27
$GPXTE,A,A,,,N,A*51
$PGRME,3.3,M,7.2,M,7.9,M*25
$PGRMZ,166,f,3*1A
$PGRMM,WGS 84*06
$HCHDG,,,,9.1,E*0F
$GPRTE,1,1,c,*37
$GPRMC,145125,A,5926.1060,N,02450.1366,E,0.0,195.4,260321,9.1,E,A*16
$GPRMB,A,,,,,,,,,,,,V,A*1C
$GPGGA,145125,5926.1060,N,02450.1366,E,1,11,0.9,50.4,M,17.0,M,,*74
$GPGSA,A,3,02,04,05,09,16,18,20,25,26,29,31,,1.8,0.9,1.6*39
$GPGSV,3,1,11,02,13,050,40,04,08,319,24,05,33,087,48,09,10,351,23*73
$GPGSV,3,2,11,16,18,304,36,18,37,198,30,20,01,165,00,25,31,149,41*77
$GPGSV,3,3,11,26,44,292,38,29,77,101,36,31,32,240,39*4E
$GPGLL,5926.1060,N,02450.1366,E,145125,A,A*4F
$GPBOD,,T,,M,,*47
$GPBWC,145125,,,,,,T,,M,,N,,A*7D
$GPVTG,195.4,T,186.2,M,0.0,N,0.0,K,A*27
$GPXTE,A,A,,,N,A*51
$PGRME,3.3,M,7.2,M,7.9,M*25
$PGRMZ,165,f,3*19
$PGRMM,WGS 84*06
$HCHDG,,,,9.1,E*0F
$GPRTE,1,1,c,*37
$GPRMC,145127,A,5926.1058,N,02450.1365,E,0.0,195.4,260321,9.1,E,A*1C
$GPRMB,A,,,,,,,,,,,,V,A*1C
$GPGGA,145127,5926.1058,N,02450.1365,E,1,11,0.9,50.6,M,17.0,M,,*7C
$GPGSA,A,3,02,04,05,09,16,18,20,25,26,29,31,,1.8,0.9,1.6*39
$GPGSV,3,1,11,02,13,050,40,04,08,319,24,05,33,087,48,09,10,351,23*73
$GPGSV,3,2,11,16,18,304,36,18,37,198,29,20,01,165,00,25,31,149,41*7F
$GPGSV,3,3,11,26,44,292,38,29,77,101,36,31,32,240,39*4E
$GPGLL,5926.1058,N,02450.1365,E,145127,A,A*45
$GPBOD,,T,,M,,*47
$GPBWC,145127,,,,,,T,,M,,N,,A*7F
$GPVTG,195.4,T,186.2,M,0.0,N,0.0,K,A*27
$GPXTE,A,A,,,N,A*51
$PGRME,3.3,M,7.2,M,8.0,M*23
$PGRMZ,166,f,3*1A
$PGRMM,WGS 84*06
$HCHDG,,,,9.1,E*0F
$GPRTE,1,1,c,*37
$GPRMC,145129,A,5926.1057,N,02450.1368,E,0.0,195.4,260321,9.1,E,A*10
$GPRMB,A,,,,,,,,,,,,V,A*1C
$GPGGA,145129,5926.1057,N,02450.1368,E,1,11,1.0,50.2,M,17.0,M,,*7C
$GPGSA,A,3,02,04,05,09,16,18,20,25,26,29,31,,1.9,1.0,1.6*30
$GPGSV,3,1,11,02,13,050,39,04,08,319,24,05,33,087,48,09,10,351,23*7D
$GPGSV,3,2,11,16,18,304,36,18,37,198,00,20,01,165,00,25,31,149,42*77
$GPGSV,3,3,11,26,44,292,38,29,77,101,36,31,32,240,39*4E
$GPGLL,5926.1057,N,02450.1368,E,145129,A,A*49
$GPBOD,,T,,M,,*47
$GPBWC,145129,,,,,,T,,M,,N,,A*71
$GPVTG,195.4,T,186.2,M,0.0,N,0.0,K,A*27
$GPXTE,A,A,,,N,A*51
$PGRME,3.3,M,7.2,M,7.9,M*25
$PGRMZ,165,f,3*19
$PGRMM,WGS 84*06
$HCHDG,,,,9.1,E*0F
$GPRTE,1,1,c,*37
$GPRMC,145131,A,5926.1057,N,02450.1368,E,0.0,195.4,260321,9.1,E,A*19
$GPRMB,A,,,,,,,,,,,,V,A*1C
$GPGGA,145131,5926.1057,N,02450.1368,E,1,11,1.0,50.1,M,17.0,M,,*76
$GPGSA,A,3,02,04,05,09,16,18,20,25,26,29,31,,1.9,1.0,1.6*30
$GPGSV,3,1,11,02,13,050,39,04,08,319,25,05,33,087,48,09,10,351,23*7C
$GPGSV,3,2,11,16,18,304,36,18,37,198,00,20,01,165,00,25,31,149,42*77
$GPGSV,3,3,11,26,44,292,39,29,77,101,35,31,32,240,39*4C
$GPGLL,5926.1057,N,02450.1368,E,145131,A,A*40
$GPBOD,,T,,M,,*47
$GPBWC,145131,,,,,,T,,M,,N,,A*78
$GPVTG,195.4,T,186.2,M,0.0,N,0.0,K,A*27
$GPXTE,A,A,,,N,A*51
$PGRME,3.3,M,7.2,M,8.0,M*23
$PGRMZ,164,f,3*18
$PGRMM,WGS 84*06
$HCHDG,,,,9.1,E*0F
$GPRTE,1,1,c,*37
$GPRMC,145133,A,5926.1056,N,02450.1365,E,0.0,195.4,260321,9.1,E,A*17
$GPRMB,A,,,,,,,,,,,,V,A*1C
$GPGGA,145133,5926.1056,N,02450.1365,E,1,11,1.0,50.1,M,17.0,M,,*78
$GPGSA,A,3,02,04,05,09,16,18,20,25,26,29,31,,1.9,1.0,1.6*30
$GPGSV,3,1,11,02,13,050,39,04,08,319,26,05,33,087,48,09,10,351,23*7F
$GPGSV,3,2,11,16,18,304,36,18,37,198,00,20,01,165,00,25,31,149,42*77
$GPGSV,3,3,11,26,44,292,39,29,77,101,34,31,32,240,38*4C
$GPGLL,5926.1056,N,02450.1365,E,145133,A,A*4E
$GPBOD,,T,,M,,*47
$GPBWC,145133,,,,,,T,,M,,N,,A*7A
$GPVTG,195.4,T,186.2,M,0.0,N,0.0,K,A*27
$GPXTE,A,A,,,N,A*51
$PGRME,3.3,M,7.3,M,8.1,M*23
$PGRMZ,164,f,3*18
$PGRMM,WGS 84*06
$HCHDG,,,,9.1,E*0F
$GPRTE,1,1,c,*37
$GPRMC,145135,A,5926.1054,N,02450.1363,E,0.0,195.4,260321,9.1,E,A*15
$GPRMB,A,,,,,,,,,,,,V,A*1C
$GPGGA,145135,5926.1054,N,02450.1363,E,1,11,1.0,50.0,M,17.0,M,,*7B
$GPGSA,A,3,02,04,05,09,16,18,20,25,26,29,31,,1.9,1.0,1.6*30
$GPGSV,3,1,11,02,13,050,39,04,08,319,26,05,33,087,48,09,10,351,23*7F
$GPGSV,3,2,11,16,18,304,36,18,37,198,00,20,01,165,00,25,31,149,42*77
$GPGSV,3,3,11,26,44,292,39,29,77,101,32,31,32,240,38*4A
$GPGLL,5926.1054,N,02450.1363,E,145135,A,A*4C
$GPBOD,,T,,M,,*47
$GPBWC,145135,,,,,,T,,M,,N,,A*7C
$GPVTG,195.4,T,186.2,M,0.0,N,0.0,K,A*27
$GPXTE,A,A,,,N,A*51
$PGRME,3.3,M,7.5,M,8.2,M*26
$PGRMZ,164,f,3*18
$PGRMM,WGS 84*06
$HCHDG,,,,9.1,E*0F
$GPRTE,1,1,c,*37
$GPRMC,145137,A,5926.1052,N,02450.1364,E,0.0,195.4,260321,9.1,E,A*16
$GPRMB,A,,,,,,,,,,,,V,A*1C
$GPGGA,145137,5926.1052,N,02450.1364,E,1,11,1.0,49.9,M,17.0,M,,*79
$GPGSA,A,3,02,04,05,09,16,18,20,25,26,29,31,,1.9,1.0,1.6*30
$GPGSV,3,1,11,02,13,050,39,04,08,319,25,05,33,087,48,09,10,351,23*7C
$GPGSV,3,2,11,16,18,304,36,18,37,198,00,20,01,165,00,25,31,149,41*74
$GPGSV,3,3,11,26,44,292,39,29,77,101,32,31,32,240,38*4A
$GPGLL,5926.1052,N,02450.1364,E,145137,A,A*4F
$GPBOD,,T,,M,,*47
$GPBWC,145137,,,,,,T,,M,,N,,A*7E
$GPVTG,195.4,T,186.2,M,0.0,N,0.0,K,A*27
$GPXTE,A,A,,,N,A*51
$PGRME,3.4,M,7.6,M,8.3,M*23
$PGRMZ,164,f,3*18
$PGRMM,WGS 84*06
$HCHDG,,,,9.1,E*0F
$GPRTE,1,1,c,*37
$GPRMC,145139,A,5926.1050,N,02450.1366,E,0.0,195.4,260321,9.1,E,A*18
$GPRMB,A,,,,,,,,,,,,V,A*1C
$GPGGA,145139,5926.1050,N,02450.1366,E,1,11,1.0,49.8,M,17.0,M,,*76
$GPGSA,A,3,02,04,05,09,16,18,20,25,26,29,31,,1.9,1.0,1.6*30
$GPGSV,3,1,11,02,13,050,39,04,08,319,24,05,33,087,48,09,10,351,23*7D
$GPGSV,3,2,11,16,18,304,36,18,37,198,00,20,01,165,00,25,31,149,41*74
$GPGSV,3,3,11,26,44,292,40,29,77,101,31,31,32,239,38*49
$GPGLL,5926.1050,N,02450.1366,E,145139,A,A*41
$GPBOD,,T,,M,,*47
$GPBWC,145139,,,,,,T,,M,,N,,A*70
$GPVTG,195.4,T,186.2,M,0.0,N,0.0,K,A*27
$GPXTE,A,A,,,N,A*51
$PGRME,3.4,M,7.8,M,8.5,M*2B
$PGRMZ,163,f,3*1F
$PGRMM,WGS 84*06
$HCHDG,,,,9.1,E*0F
$GPRTE,1,1,c,*37
$GPRMC,145141,A,5926.1048,N,02450.1370,E,0.0,195.4,260321,9.1,E,A*19
$GPRMB,A,,,,,,,,,,,,V,A*1C
$GPGGA,145141,5926.1048,N,02450.1370,E,1,11,1.0,49.5,M,17.0,M,,*7A
$GPGSA,A,3,02,04,05,09,16,18,20,25,26,29,31,,1.9,1.0,1.6*30
$GPGSV,3,1,11,02,13,050,39,04,08,319,24,05,33,087,48,09,10,351,22*7C
$GPGSV,3,2,11,16,18,304,36,18,37,198,00,20,01,165,00,25,31,149,41*74
$GPGSV,3,3,11,26,44,292,40,29,77,101,31,31,32,239,38*49
$GPGLL,5926.1048,N,02450.1370,E,145141,A,A*40
$GPBOD,,T,,M,,*47
$GPBWC,145141,,,,,,T,,M,,N,,A*7F
$GPVTG,195.4,T,186.2,M,0.0,N,0.0,K,A*27
$GPXTE,A,A,,,N,A*51
$PGRME,3.4,M,7.9,M,8.6,M*29
$PGRMZ,163,f,3*1F
$PGRMM,WGS 84*06
$HCHDG,,,,9.1,E*0F
$GPRTE,1,1,c,*37
$GPRMC,145143,A,5926.1044,N,02450.1371,E,0.0,195.4,260321,9.1,E,A*16
$GPRMB,A,,,,,,,,,,,,V,A*1C
$GPGGA,145143,5926.1044,N,02450.1371,E,1,11,1.0,49.0,M,17.0,M,,*70
$GPGSA,A,3,02,04,05,09,16,18,20,25,26,29,31,,1.9,1.0,1.6*30
$GPGSV,3,1,11,02,13,050,39,04,08,319,22,05,33,087,48,09,10,351,22*7A
$GPGSV,3,2,11,16,18,304,36,18,37,198,00,20,01,165,00,25,31,149,41*74
$GPGSV,3,3,11,26,44,292,40,29,77,101,32,31,32,239,38*4A
$GPGLL,5926.1044,N,02450.1371,E,145143,A,A*4F
$GPBOD,,T,,M,,*47
$GPBWC,145143,,,,,,T,,M,,N,,A*7D
$GPVTG,195.4,T,186.2,M,0.0,N,0.0,K,A*27
$GPXTE,A,A,,,N,A*51
$PGRME,3.4,M,8.0,M,8.7,M*2E
$PGRMZ,161,f,3*1D
$PGRMM,WGS 84*06
$HCHDG,,,,9.1,E*0F
$GPRTE,1,1,c,*37
$GPRMC,145146,A,5926.1042,N,02450.1375,E,0.0,195.4,260321,9.1,E,A*11
$GPRMB,A,,,,,,,,,,,,V,A*1C
$GPGGA,145146,5926.1042,N,02450.1375,E,1,11,1.0,48.4,M,17.0,M,,*72
$GPGSA,A,3,02,04,05,09,16,18,20,25,26,29,31,,1.9,1.0,1.6*30
$GPGSV,3,1,11,02,12,050,39,04,08,319,21,05,33,087,48,09,10,351,21*7B
$GPGSV,3,2,11,16,18,304,36,18,37,198,00,20,01,165,00,25,31,149,41*74
$GPGSV,3,3,11,26,44,292,40,29,77,101,33,31,32,239,38*4B
$GPGLL,5926.1042,N,02450.1375,E,145146,A,A*48
$GPBOD,,T,,M,,*47
$GPBWC,145146,,,,,,T,,M,,N,,A*78
$GPVTG,195.4,T,186.2,M,0.0,N,0.0,K,A*27
$GPXTE,A,A,,,N,A*51
$PGRME,3.4,M,8.1,M,8.8,M*20
$PGRMZ,159,f,3*16
$PGRMM,WGS 84*06
$HCHDG,,,,9.1,E*0F
$GPRTE,1,1,c,*37
$GPRMC,145148,A,5926.1040,N,02450.1378,E,0.0,195.4,260321,9.1,E,A*10
$GPRMB,A,,,,,,,,,,,,V,A*1C
$GPGGA,145148,5926.1040,N,02450.1378,E,1,11,1.0,48.5,M,17.0,M,,*72
$GPGSA,A,3,02,04,05,09,16,18,20,25,26,29,31,,1.9,1.0,1.6*30
$GPGSV,3,1,11,02,12,050,39,04,08,318,20,05,33,087,48,09,10,351,22*78
$GPGSV,3,2,11,16,18,304,36,18,37,198,00,20,01,165,00,25,31,149,41*74
$GPGSV,3,3,11,26,44,292,41,29,77,101,33,31,32,239,38*4A
$GPGLL,5926.1040,N,02450.1378,E,145148,A,A*49
$GPBOD,,T,,M,,*47
$GPBWC,145148,,,,,,T,,M,,N,,A*76
$GPVTG,195.4,T,186.2,M,0.0,N,0.0,K,A*27
$GPXTE,A,A,,,N,A*51
$PGRME,3.5,M,8.2,M,8.9,M*23
$PGRMZ,159,f,3*16
$PGRMM,WGS 84*06
$HCHDG,,,,9.1,E*0F
$GPRTE,1,1,c,*37
$GPRMC,145150,A,5926.1039,N,02450.1380,E,0.0,195.4,260321,9.1,E,A*10
$GPRMB,A,,,,,,,,,,,,V,A*1C
$GPGGA,145150,5926.1039,N,02450.1380,E,1,11,1.0,48.4,M,17.0,M,,*73
$GPGSA,A,3,02,04,05,09,16,18,20,25,26,29,31,,1.9,1.0,1.6*30
$GPGSV,3,1,11,02,12,050,39,04,08,318,20,05,33,086,48,09,10,351,23*78
$GPGSV,3,2,11,16,18,304,37,18,37,198,00,20,01,165,00,25,31,149,41*75
$GPGSV,3,3,11,26,44,292,40,29,77,101,34,31,32,239,39*4D
$GPGLL,5926.1039,N,02450.1380,E,145150,A,A*49
$GPBOD,,T,,M,,*47
$GPBWC,145150,,,,,,T,,M,,N,,A*7F
$GPVTG,195.4,T,186.2,M,0.0,N,0.0,K,A*27
$GPXTE,A,A,,,N,A*51
$PGRME,3.5,M,8.3,M,9.0,M*2A
$PGRMZ,159,f,3*16
$PGRMM,WGS 84*06
$HCHDG,,,,9.1,E*0F
$GPRTE,1,1,c,*37
$GPRMC,145152,A,5926.1037,N,02450.1386,E,0.0,195.4,260321,9.1,E,A*1A
$GPRMB,A,,,,,,,,,,,,V,A*1C
$GPGGA,145152,5926.1037,N,02450.1386,E,1,11,1.0,48.2,M,17.0,M,,*7F
$GPGSA,A,3,02,04,05,09,16,18,20,25,26,29,31,,2.0,1.0,1.7*3B
$GPGSV,3,1,11,02,12,050,39,04,08,318,00,05,33,086,48,09,10,351,24*7D
$GPGSV,3,2,11,16,18,304,37,18,37,198,00,20,01,165,00,25,31,149,41*75
$GPGSV,3,3,11,26,44,292,40,29,77,101,34,31,32,239,39*4D
$GPGLL,5926.1037,N,02450.1386,E,145152,A,A*43
$GPBOD,,T,,M,,*47
$GPBWC,145152,,,,,,T,,M,,N,,A*7D
$GPVTG,195.4,T,186.2,M,0.0,N,0.0,K,A*27
$GPXTE,A,A,,,N,A*51
$PGRME,3.5,M,8.2,M,8.9,M*23
$PGRMZ,158,f,3*17
$PGRMM,WGS 84*06
$HCHDG,,,,9.1,E*0F
$GPRTE,1,1,c,*37
$GPRMC,145154,A,5926.1036,N,02450.1385,E,0.0,195.4,260321,9.1,E,A*1E
$GPRMB,A,,,,,,,,,,,,V,A*1C
$GPGGA,145154,5926.1036,N,02450.1385,E,1,11,1.0,48.4,M,17.0,M,,*7D
$GPGSA,A,3,02,04,05,09,16,18,20,25,26,29,31,,2.0,1.0,1.7*3B
$GPGSV,3,1,11,02,12,050,39,04,08,318,00,05,33,086,47,09,10,351,25*73
$GPGSV,3,2,11,16,18,304,37,18,37,198,00,20,01,165,00,25,31,149,41*75
$GPGSV,3,3,11,26,44,292,40,29,77,101,35,31,32,239,39*4C
$GPGLL,5926.1036,N,02450.1385,E,145154,A,A*47
$GPBOD,,T,,M,,*47
$GPBWC,145154,,,,,,T,,M,,N,,A*7B
$GPVTG,195.4,T,186.2,M,0.0,N,0.0,K,A*27
$GPXTE,A,A,,,N,A*51
$PGRME,3.5,M,8.3,M,9.0,M*2A
$PGRMZ,159,f,3*16
$PGRMM,WGS 84*06
$HCHDG,,,,9.1,E*0F
$GPRTE,1,1,c,*37
$GPRMC,145157,A,5926.1036,N,02450.1380,E,0.0,195.4,260321,9.1,E,A*18
$GPRMB,A,,,,,,,,,,,,V,A*1C
$GPGGA,145157,5926.1036,N,02450.1380,E,1,11,0.9,48.6,M,17.0,M,,*71
$GPGSA,A,3,02,04,05,09,16,18,20,25,26,29,31,,1.9,0.9,1.7*39
$GPGSV,3,1,11,02,12,050,39,04,08,318,00,05,33,086,48,09,10,351,26*7F
$GPGSV,3,2,11,16,18,304,36,18,37,198,30,20,01,165,00,25,31,149,41*77
$GPGSV,3,3,11,26,44,292,40,29,77,101,34,31,32,239,39*4D
$GPGLL,5926.1036,N,02450.1380,E,145157,A,A*41
$GPBOD,,T,,M,,*47
$GPBWC,145157,,,,,,T,,M,,N,,A*78
$GPVTG,195.4,T,186.2,M,0.0,N,0.0,K,A*27
$GPXTE,A,A,,,N,A*51
$PGRME,3.5,M,8.3,M,9.0,M*2A
$PGRMZ,160,f,3*1C
$PGRMM,WGS 84*06
$HCHDG,,,,9.1,E*0F
$GPRTE,1,1,c,*37
$GPRMC,145159,A,5926.1035,N,02450.1379,E,0.0,195.4,260321,9.1,E,A*13
$GPRMB,A,,,,,,,,,,,,V,A*1C
$GPGGA,145159,5926.1035,N,02450.1379,E,1,11,0.9,49.0,M,17.0,M,,*7D
$GPGSA,A,3,02,04,05,09,16,18,20,25,26,29,31,,1.9,0.9,1.7*39
$GPGSV,3,1,11,02,12,050,39,04,08,318,00,05,33,086,48,09,10,350,25*7D
$GPGSV,3,2,11,16,18,304,37,18,37,198,30,20,01,165,00,25,31,149,41*76
$GPGSV,3,3,11,26,44,292,40,29,77,101,34,31,32,239,38*4C
$GPGLL,5926.1035,N,02450.1379,E,145159,A,A*4A
$GPBOD,,T,,M,,*47
$GPBWC,145159,,,,,,T,,M,,N,,A*76
$GPVTG,195.4,T,186.2,M,0.0,N,0.0,K,A*27
$GPXTE,A,A,,,N,A*51
$PGRME,3.5,M,8.4,M,9.1,M*2C
$PGRMZ,161,f,3*1D
$PGRMM,WGS 84*06
$HCHDG,,,,9.1,E*0F
$GPRTE,1,1,c,*37
$GPRMC,145201,A,5926.1036,N,02450.1380,E,0.0,195.4,260321,9.1,E,A*18
$GPRMB,A,,,,,,,,,,,,V,A*1C
$GPGGA,145201,5926.1036,N,02450.1380,E,1,11,0.9,49.2,M,17.0,M,,*74
$GPGSA,A,3,02,04,05,09,16,18,20,25,26,29,31,,1.9,0.9,1.7*39
$GPGSV,3,1,11,02,12,050,39,04,08,318,00,05,33,086,48,09,10,350,24*7C
$GPGSV,3,2,11,16,18,304,37,18,37,198,31,20,01,165,00,25,31,149,41*77
$GPGSV,3,3,11,26,44,292,40,29,77,101,34,31,32,239,38*4C
$GPGLL,5926.1036,N,02450.1380,E,145201,A,A*41
$GPBOD,,T,,M,,*47
$GPBWC,145201,,,,,,T,,M,,N,,A*78
$GPVTG,195.4,T,186.2,M,0.0,N,0.0,K,A*27
$GPXTE,A,A,,,N,A*51
$PGRME,3.5,M,8.5,M,9.2,M*2E
$PGRMZ,162,f,3*1E
$PGRMM,WGS 84*06
$HCHDG,,,,9.1,E*0F
$GPRTE,1,1,c,*37
$GPRMC,145203,A,5926.1037,N,02450.1382,E,0.0,195.4,260321,9.1,E,A*19
$GPRMB,A,,,,,,,,,,,,V,A*1C
$GPGGA,145203,5926.1037,N,02450.1382,E,1,11,0.9,49.2,M,17.0,M,,*75
$GPGSA,A,3,02,04,05,09,16,18,20,25,26,29,31,,1.9,0.9,1.7*39
$GPGSV,3,1,11,02,12,050,39,04,08,318,00,05,33,086,47,09,10,350,24*73
$GPGSV,3,2,11,16,18,304,37,18,37,198,31,20,01,165,00,25,31,149,41*77
$GPGSV,3,3,11,26,44,292,40,29,77,101,35,31,32,239,38*4D
$GPGLL,5926.1037,N,02450.1382,E,145203,A,A*40
$GPBOD,,T,,M,,*47
$GPBWC,145203,,,,,,T,,M,,N,,A*7A
$GPVTG,195.4,T,186.2,M,0.0,N,0.0,K,A*27
$GPXTE,A,A,,,N,A*51
$PGRME,3.5,M,8.5,M,9.2,M*2E
$PGRMZ,161,f,3*1D
$PGRMM,WGS 84*06
$HCHDG,,,,9.1,E*0F
$GPRTE,1,1,c,*37
$GPRMC,145205,A,5926.1039,N,02450.1385,E,0.0,195.4,260321,9.1,E,A*16
$GPRMB,A,,,,,,,,,,,,V,A*1C
$GPGGA,145205,5926.1039,N,02450.1385,E,1,11,0.9,49.0,M,17.0,M,,*78
$GPGSA,A,3,02,04,05,09,16,18,20,25,26,29,31,,1.9,0.9,1.7*39
$GPGSV,3,1,11,02,12,050,39,04,08,318,00,05,33,086,47,09,10,350,22*75
$GPGSV,3,2,11,16,18,304,37,18,37,198,30,20,01,165,00,25,31,149,41*76
$GPGSV,3,3,11,26,44,292,40,29,77,101,35,31,32,239,38*4D
$GPGLL,5926.1039,N,02450.1385,E,145205,A,A*4F
$GPBOD,,T,,M,,*47
$GPBWC,145205,,,,,,T,,M,,N,,A*7C
$GPVTG,195.4,T,186.2,M,0.0,N,0.0,K,A*27
$GPXTE,A,A,,,N,A*51
$PGRME,3.5,M,8.4,M,9.2,M*2F
$PGRMZ,161,f,3*1D
$PGRMM,WGS 84*06
$HCHDG,,,,9.1,E*0F
$GPRTE,1,1,c,*37
$GPRMC,145207,A,5926.1039,N,02450.1384,E,0.0,195.4,260321,9.1,E,A*15
$GPRMB,A,,,,,,,,,,,,V,A*1C
$GPGGA,145207,5926.1039,N,02450.1384,E,1,11,0.9,48.6,M,17.0,M,,*7C
$GPGSA,A,3,02,04,05,09,16,18,20,25,26,29,31,,1.8,0.9,1.6*39
$GPGSV,3,1,11,02,12,050,39,04,08,318,26,05,33,086,47,09,10,350,20*73
$GPGSV,3,2,11,16,18,304,37,18,37,198,30,20,01,165,00,25,31,149,42*75
$GPGSV,3,3,11,26,44,292,40,29,77,101,36,31,32,239,38*4E
$GPGLL,5926.1039,N,02450.1384,E,145207,A,A*4C
$GPBOD,,T,,M,,*47
$GPBWC,145207,,,,,,T,,M,,N,,A*7E
$GPVTG,195.4,T,186.2,M,0.0,N,0.0,K,A*27
$GPXTE,A,A,,,N,A*51
$PGRME,3.5,M,8.5,M,9.2,M*2E
$PGRMZ,160,f,3*1C
$PGRMM,WGS 84*06
$HCHDG,,,,9.1,E*0F
$GPRTE,1,1,c,*37
$GPRMC,145210,A,5926.1043,N,02450.1383,E,0.0,195.4,260321,9.1,E,A*19
$GPRMB,A,,,,,,,,,,,,V,A*1C
$GPGGA,145210,5926.1043,N,02450.1383,E,1,11,0.9,47.4,M,17.0,M,,*7D
$GPGSA,A,3,02,04,05,09,16,18,20,25,26,29,31,,1.8,0.9,1.6*39
$GPGSV,3,1,11,02,12,050,39,04,08,318,27,05,33,086,47,09,10,350,18*79
$GPGSV,3,2,11,16,18,304,37,18,37,198,30,20,01,165,00,25,31,149,42*75
$GPGSV,3,3,11,26,44,292,40,29,77,101,36,31,32,239,38*4E
$GPGLL,5926.1043,N,02450.1383,E,145210,A,A*40
$GPBOD,,T,,M,,*47
$GPBWC,145210,,,,,,T,,M,,N,,A*78
$GPVTG,195.4,T,186.2,M,0.0,N,0.0,K,A*27
$GPXTE,A,A,,,N,A*51
$PGRME,3.4,M,8.3,M,9.0,M*2B
$PGRMZ,156,f,3*19
$PGRMM,WGS 84*06
$HCHDG,,,,9.1,E*0F
$GPRTE,1,1,c,*37
$GPRMC,145212,A,5926.1046,N,02450.1384,E,0.0,195.4,260321,9.1,E,A*19
$GPRMB,A,,,,,,,,,,,,V,A*1C
$GPGGA,145212,5926.1046,N,02450.1384,E,1,11,0.9,46.8,M,17.0,M,,*70
$GPGSA,A,3,02,04,05,09,16,18,20,25,26,29,31,,1.8,0.9,1.6*39
$GPGSV,3,1,11,02,12,050,39,04,08,318,27,05,33,086,47,09,10,350,18*79
$GPGSV,3,2,11,16,19,304,37,18,37,198,30,20,01,165,00,25,31,149,42*74
$GPGSV,3,3,11,26,44,292,40,29,77,101,36,31,32,239,38*4E
$GPGLL,5926.1046,N,02450.1384,E,145212,A,A*40
$GPBOD,,T,,M,,*47
$GPBWC,145212,,,,,,T,,M,,N,,A*7A
$GPVTG,195.4,T,186.2,M,0.0,N,0.0,K,A*27
$GPXTE,A,A,,,N,A*51
$PGRME,3.4,M,8.3,M,8.9,M*23
$PGRMZ,153,f,3*1C
$PGRMM,WGS 84*06
$HCHDG,,,,9.1,E*0F
$GPRTE,1,1,c,*37
$GPRMC,145214,A,5926.1048,N,02450.1383,E,0.0,195.4,260321,9.1,E,A*16
$GPRMB,A,,,,,,,,,,,,V,A*1C
$GPGGA,145214,5926.1048,N,02450.1383,E,1,11,0.9,46.0,M,17.0,M,,*77
$GPGSA,A,3,02,04,05,09,16,18,20,25,26,29,31,,1.8,0.9,1.6*39
$GPGSV,3,1,11,02,12,050,39,04,08,318,27,05,33,086,47,09,10,350,18*79
$GPGSV,3,2,11,16,19,304,37,18,37,198,29,20,01,165,00,25,31,149,42*7C
$GPGSV,3,3,11,26,44,292,40,29,77,101,36,31,32,239,38*4E
$GPGLL,5926.1048,N,02450.1383,E,145214,A,A*4F
$GPBOD,,T,,M,,*47
$GPBWC,145214,,,,,,T,,M,,N,,A*7C
$GPVTG,195.4,T,186.2,M,0.0,N,0.0,K,A*27
$GPXTE,A,A,,,N,A*51
$PGRME,3.4,M,8.2,M,8.9,M*22
$PGRMZ,151,f,3*1E
$PGRMM,WGS 84*06
$HCHDG,,,,9.1,E*0F
$GPRTE,1,1,c,*37
$GPRMC,145216,A,5926.1051,N,02450.1383,E,0.0,195.4,260321,9.1,E,A*1C
$GPRMB,A,,,,,,,,,,,,V,A*1C
$GPGGA,145216,5926.1051,N,02450.1383,E,1,11,0.9,45.4,M,17.0,M,,*7A
$GPGSA,A,3,02,04,05,09,16,18,20,25,26,29,31,,1.8,0.9,1.6*39
$GPGSV,3,1,11,02,12,050,40,04,08,318,27,05,33,086,47,09,10,350,17*78
$GPGSV,3,2,11,16,19,304,37,18,37,198,29,20,01,165,00,25,31,149,42*7C
$GPGSV,3,3,11,26,44,292,40,29,77,101,35,31,32,239,38*4D
$GPGLL,5926.1051,N,02450.1383,E,145216,A,A*45
$GPBOD,,T,,M,,*47
$GPBWC,145216,,,,,,T,,M,,N,,A*7E
$GPVTG,195.4,T,186.2,M,0.0,N,0.0,K,A*27
$GPXTE,A,A,,,N,A*51
$PGRME,3.4,M,8.1,M,8.8,M*20
$PGRMZ,149,f,3*17
$PGRMM,WGS 84*06
$HCHDG,,,,9.1,E*0F
$GPRTE,1,1,c,*37
$GPRMC,145218,A,5926.1052,N,02450.1379,E,0.0,195.4,260321,9.1,E,A*14
$GPRMB,A,,,,,,,,,,,,V,A*1C
$GPGGA,145218,5926.1052,N,02450.1379,E,1,11,0.9,44.9,M,17.0,M,,*7E
$GPGSA,A,3,02,04,05,09,16,18,20,25,26,29,31,,1.8,0.9,1.6*39
$GPGSV,3,1,11,02,12,050,40,04,08,318,28,05,33,086,47,09,10,350,18*78
$GPGSV,3,2,11,16,19,304,37,18,37,198,29,20,01,165,00,25,31,149,42*7C
$GPGSV,3,3,11,26,44,292,40,29,77,101,35,31,32,239,38*4D
$GPGLL,5926.1052,N,02450.1379,E,145218,A,A*4D
$GPBOD,,T,,M,,*47
$GPBWC,145218,,,,,,T,,M,,N,,A*70
$GPVTG,195.4,T,186.2,M,0.0,N,0.0,K,A*27
$GPXTE,A,A,,,N,A*51
$PGRME,3.4,M,8.1,M,8.8,M*20
$PGRMZ,147,f,3*19
$PGRMM,WGS 84*06
$HCHDG,,,,9.1,E*0F
$GPRTE,1,1,c,*37
$GPRMC,145220,A,5926.1053,N,02450.1375,E,0.0,195.4,260321,9.1,E,A*12
$GPRMB,A,,,,,,,,,,,,V,A*1C
$GPGGA,145220,5926.1053,N,02450.1375,E,1,11,0.9,44.7,M,17.0,M,,*76
$GPGSA,A,3,02,04,05,09,16,18,20,25,26,29,31,,1.8,0.9,1.6*39
$GPGSV,3,1,11,02,12,050,40,04,08,318,29,05,33,086,47,09,10,350,19*78
$GPGSV,3,2,11,16,19,304,37,18,37,198,29,20,02,165,00,25,31,149,42*7F
$GPGSV,3,3,11,26,44,292,39,29,77,101,35,31,32,239,38*43
$GPGLL,5926.1053,N,02450.1375,E,145220,A,A*4B
$GPBOD,,T,,M,,*47
$GPBWC,145220,,,,,,T,,M,,N,,A*7B
$GPVTG,195.4,T,186.2,M,0.0,N,0.0,K,A*27
$GPXTE,A,A,,,N,A*51
$PGRME,3.4,M,8.1,M,8.8,M*20
$PGRMZ,147,f,3*19
$PGRMM,WGS 84*06
$HCHDG,,,,9.1,E*0F
$GPRTE,1,1,c,*37
$GPRMC,145222,A,5926.1053,N,02450.1370,E,0.0,195.4,260321,9.1,E,A*15
$GPRMB,A,,,,,,,,,,,,V,A*1C
$GPGGA,145222,5926.1053,N,02450.1370,E,1,11,0.9,44.8,M,17.0,M,,*7E
$GPGSA,A,3,02,04,05,09,16,18,20,25,26,29,31,,1.8,0.9,1.6*39
$GPGSV,3,1,11,02,12,050,40,04,08,318,30,05,33,086,47,09,10,350,22*78
$GPGSV,3,2,11,16,19,304,37,18,37,198,29,20,02,165,00,25,31,149,42*7F
$GPGSV,3,3,11,26,44,292,39,29,77,101,35,31,32,239,37*4C
$GPGLL,5926.1053,N,02450.1370,E,145222,A,A*4C
$GPBOD,,T,,M,,*47
$GPBWC,145222,,,,,,T,,M,,N,,A*79
$GPVTG,195.4,T,186.2,M,0.0,N,0.0,K,A*27
$GPXTE,A,A,,,N,A*51
$PGRME,3.5,M,8.1,M,8.8,M*21
$PGRMZ,147,f,3*19
$PGRMM,WGS 84*06
$HCHDG,,,,9.1,E*0F
$GPRTE,1,1,c,*37
$GPRMC,145224,A,5926.1053,N,02450.1368,E,0.0,195.4,260321,9.1,E,A*1A
$GPRMB,A,,,,,,,,,,,,V,A*1C
$GPGGA,145224,5926.1053,N,02450.1368,E,1,11,0.9,44.9,M,17.0,M,,*70
$GPGSA,A,3,02,04,05,09,16,18,20,25,26,29,31,,1.8,0.9,1.6*39
$GPGSV,3,1,11,02,12,050,40,04,08,318,30,05,33,086,47,09,10,350,24*7E
$GPGSV,3,2,11,16,19,304,37,18,37,198,30,20,02,165,00,25,31,149,42*77
$GPGSV,3,3,11,26,44,292,39,29,77,101,35,31,32,239,38*43
$GPGLL,5926.1053,N,02450.1368,E,145224,A,A*43
$GPBOD,,T,,M,,*47
$GPBWC,145224,,,,,,T,,M,,N,,A*7F
$GPVTG,195.4,T,186.2,M,0.0,N,0.0,K,A*27
$GPXTE,A,A,,,N,A*51
$PGRME,3.5,M,8.1,M,8.8,M*21
$PGRMZ,147,f,3*19
$PGRMM,WGS 84*06
$HCHDG,,,,9.1,E*0F
$GPRTE,1,1,c,*37
$GPRMC,145226,A,5926.1052,N,02450.1369,E,0.0,195.4,260321,9.1,E,A*18
$GPRMB,A,,,,,,,,,,,,V,A*1C
$GPGGA,145226,5926.1052,N,02450.1369,E,1,11,0.9,45.1,M,17.0,M,,*7B
$GPGSA,A,3,02,04,05,09,16,18,20,25,26,29,31,,1.8,0.9,1.6*39
$GPGSV,3,1,11,02,12,050,40,04,08,318,31,05,33,086,47,09,10,350,24*7F
$GPGSV,3,2,11,16,19,304,37,18,37,198,30,20,02,165,00,25,31,149,42*77
$GPGSV,3,3,11,26,44,292,39,29,77,101,35,31,32,239,37*4C
$GPGLL,5926.1052,N,02450.1369,E,145226,A,A*41
$GPBOD,,T,,M,,*47
$GPBWC,145226,,,,,,T,,M,,N,,A*7D
$GPVTG,195.4,T,186.2,M,0.0,N,0.0,K,A*27
$GPXTE,A,A,,,N,A*51
$PGRME,3.5,M,8.1,M,8.8,M*21
$PGRMZ,148,f,3*16
$PGRMM,WGS 84*06
$HCHDG,,,,9.1,E*0F
$GPRTE,1,1,c,*37
$GPRMC,145228,A,5926.1050,N,02450.1366,E,0.0,195.4,260321,9.1,E,A*1B
$GPRMB,A,,,,,,,,,,,,V,A*1C
$GPGGA,145228,5926.1050,N,02450.1366,E,1,11,0.9,45.1,M,17.0,M,,*78
$GPGSA,A,3,02,04,05,09,16,18,20,25,26,29,31,,1.8,0.9,1.6*39
$GPGSV,3,1,11,02,12,050,40,04,08,318,31,05,33,086,47,09,10,350,25*7E
$GPGSV,3,2,11,16,19,304,37,18,37,198,30,20,02,165,00,25,31,149,42*77
$GPGSV,3,3,11,26,44,292,39,29,77,101,35,31,32,239,38*43
$GPGLL,5926.1050,N,02450.1366,E,145228,A,A*42
$GPBOD,,T,,M,,*47
$GPBWC,145228,,,,,,T,,M,,N,,A*73
$GPVTG,195.4,T,186.2,M,0.0,N,0.0,K,A*27
$GPXTE,A,A,,,N,A*51
$PGRME,3.5,M,8.1,M,8.8,M*21
$PGRMZ,148,f,3*16
$PGRMM,WGS 84*06
$HCHDG,,,,9.1,E*0F
$GPRTE,1,1,c,*37
$GPRMC,145230,A,5926.1049,N,02450.1364,E,0.0,195.4,260321,9.1,E,A*18
$GPRMB,A,,,,,,,,,,,,V,A*1C
$GPGGA,145230,5926.1049,N,02450.1364,E,1,11,0.9,44.9,M,17.0,M,,*72
$GPGSA,A,3,02,04,05,09,16,18,20,25,26,29,31,,1.8,0.9,1.6*39
$GPGSV,3,1,11,02,12,050,40,04,08,318,31,05,33,086,48,09,10,350,25*71
$GPGSV,3,2,11,16,19,304,37,18,37,198,30,20,02,165,00,25,30,149,42*76
$GPGSV,3,3,11,26,44,292,39,29,77,101,36,31,32,239,38*40
$GPGLL,5926.1049,N,02450.1364,E,145230,A,A*41
$GPBOD,,T,,M,,*47
$GPBWC,145230,,,,,,T,,M,,N,,A*7A
$GPVTG,195.4,T,186.2,M,0.0,N,0.0,K,A*27
$GPXTE,A,A,,,N,A*51
$PGRME,3.5,M,8.1,M,8.9,M*20
$PGRMZ,147,f,3*19
$PGRMM,WGS 84*06
$HCHDG,,,,9.1,E*0F
$GPRTE,1,1,c,*37
$GPRMC,145232,A,5926.1049,N,02450.1360,E,0.0,195.4,260321,9.1,E,A*1E
$GPRMB,A,,,,,,,,,,,,V,A*1C
$GPGGA,145232,5926.1049,N,02450.1360,E,1,11,0.9,44.4,M,17.0,M,,*79
$GPGSA,A,3,02,04,05,09,16,18,20,25,26,29,31,,1.8,0.9,1.6*39
$GPGSV,3,1,11,02,12,050,41,04,08,318,31,05,33,086,47,09,10,350,24*7E
$GPGSV,3,2,11,16,19,304,37,18,37,198,31,20,02,165,00,25,30,149,41*74
$GPGSV,3,3,11,26,45,292,40,29,77,101,36,31,32,239,38*4F
$GPGLL,5926.1049,N,02450.1360,E,145232,A,A*47
$GPBOD,,T,,M,,*47
$GPBWC,145232,,,,,,T,,M,,N,,A*78
$GPVTG,195.4,T,186.2,M,0.0,N,0.0,K,A*27
$GPXTE,A,A,,,N,A*51
$PGRME,3.5,M,8.1,M,8.8,M*21
$PGRMZ,146,f,3*18
$PGRMM,WGS 84*06
$HCHDG,,,,9.1,E*0F
$GPRTE,1,1,c,*37
$GPRMC,145234,A,5926.1048,N,02450.1358,E,0.0,195.4,260321,9.1,E,A*12
$GPRMB,A,,,,,,,,,,,,V,A*1C
$GPGGA,145234,5926.1048,N,02450.1358,E,1,11,0.9,43.7,M,17.0,M,,*71
$GPGSA,A,3,02,04,05,09,16,18,20,25,26,29,31,,1.8,0.9,1.6*39
$GPGSV,3,1,11,02,12,050,41,04,08,318,32,05,33,086,48,09,10,350,23*75
$GPGSV,3,2,11,16,19,304,36,18,37,198,30,20,02,165,00,25,30,149,41*74
$GPGSV,3,3,11,26,45,292,40,29,77,101,36,31,32,239,38*4F
$GPGLL,5926.1048,N,02450.1358,E,145234,A,A*4B
$GPBOD,,T,,M,,*47
$GPBWC,145234,,,,,,T,,M,,N,,A*7E
$GPVTG,195.4,T,186.2,M,0.0,N,0.0,K,A*27
$GPXTE,A,A,,,N,A*51
$PGRME,3.4,M,8.0,M,8.7,M*2E
$PGRMZ,143,f,3*1D
$PGRMM,WGS 84*06
$HCHDG,,,,9.1,E*0F
$GPRTE,1,1,c,*37
$GPRMC,145236,A,5926.1046,N,02450.1355,E,0.0,195.4,260321,9.1,E,A*13
$GPRMB,A,,,,,,,,,,,,V,A*1C
$GPGGA,145236,5926.1046,N,02450.1355,E,1,11,0.9,43.3,M,17.0,M,,*74
$GPGSA,A,3,02,04,05,09,16,18,20,25,26,29,31,,1.8,0.9,1.6*39
$GPGSV,3,1,11,02,12,050,41,04,08,318,32,05,33,086,48,09,10,350,23*75
$GPGSV,3,2,11,16,19,304,37,18,37,198,30,20,02,165,00,25,30,149,41*75
$GPGSV,3,3,11,26,45,292,40,29,77,101,36,31,32,239,37*40
$GPGLL,5926.1046,N,02450.1355,E,145236,A,A*4A
$GPBOD,,T,,M,,*47
$GPBWC,145236,,,,,,T,,M,,N,,A*7C
$GPVTG,195.4,T,186.2,M,0.0,N,0.0,K,A*27
$GPXTE,A,A,,,N,A*51
$PGRME,3.4,M,8.0,M,8.7,M*2E
$PGRMZ,142,f,3*1C
$PGRMM,WGS 84*06
$HCHDG,,,,9.1,E*0F
$GPRTE,1,1,c,*37
$GPRMC,145238,A,5926.1045,N,02450.1355,E,0.0,195.4,260321,9.1,E,A*1E
$GPRMB,A,,,,,,,,,,,,V,A*1C
$GPGGA,145238,5926.1045,N,02450.1355,E,1,11,0.9,43.0,M,17.0,M,,*7A
$GPGSA,A,3,02,04,05,09,16,18,20,25,26,29,31,,1.8,0.9,1.6*39
$GPGSV,3,1,11,02,12,050,41,04,08,318,32,05,33,086,48,09,10,350,22*74
$GPGSV,3,2,11,16,19,304,37,18,37,198,30,20,02,165,22,25,30,149,41*75
$GPGSV,3,3,11,26,45,292,40,29,76,100,36,31,32,239,37*40
$GPGLL,5926.1045,N,02450.1355,E,145238,A,A*47
$GPBOD,,T,,M,,*47
$GPBWC,145238,,,,,,T,,M,,N,,A*72
$GPVTG,195.4,T,186.2,M,0.0,N,0.0,K,A*27
$GPXTE,A,A,,,N,A*51
$PGRME,3.4,M,8.0,M,8.7,M*2E
$PGRMZ,141,f,3*1F
$PGRMM,WGS 84*06
$HCHDG,,,,9.1,E*0F
$GPRTE,1,1,c,*37
$GPRMC,145240,A,5926.1044,N,02450.1355,E,0.0,195.4,260321,9.1,E,A*10
$GPRMB,A,,,,,,,,,,,,V,A*1C
$GPGGA,145240,5926.1044,N,02450.1355,E,1,11,0.9,43.1,M,17.0,M,,*75
$GPGSA,A,3,02,04,05,09,16,18,20,25,26,29,31,,1.8,0.9,1.6*39
$GPGSV,3,1,11,02,12,050,40,04,08,318,32,05,33,086,48,09,10,350,23*74
$GPGSV,3,2,11,16,19,304,37,18,37,198,30,20,02,165,22,25,30,149,41*75
$GPGSV,3,3,11,26,45,292,40,29,76,100,36,31,32,239,37*40
$GPGLL,5926.1044,N,02450.1355,E,145240,A,A*49
$GPBOD,,T,,M,,*47
$GPBWC,145240,,,,,,T,,M,,N,,A*7D
$GPVTG,195.4,T,186.2,M,0.0,N,0.0,K,A*27
$GPXTE,A,A,,,N,A*51
$PGRME,3.5,M,8.0,M,8.7,M*2F
$PGRMZ,141,f,3*1F
$PGRMM,WGS 84*06
$HCHDG,,,,9.1,E*0F
$GPRTE,1,1,c,*37
$GPRMC,145242,A,5926.1044,N,02450.1357,E,0.0,195.4,260321,9.1,E,A*10
$GPRMB,A,,,,,,,,,,,,V,A*1C
$GPGGA,145242,5926.1044,N,02450.1357,E,1,11,0.9,43.3,M,17.0,M,,*77
$GPGSA,A,3,02,04,05,09,16,18,20,25,26,29,31,,1.8,0.9,1.6*39
$GPGSV,3,1,11,02,12,050,41,04,08,318,32,05,33,086,47,09,10,350,24*7D
$GPGSV,3,2,11,16,19,304,37,18,37,198,30,20,02,165,22,25,30,149,41*75
$GPGSV,3,3,11,26,45,292,40,29,76,100,36,31,31,239,38*4C
$GPGLL,5926.1044,N,02450.1357,E,145242,A,A*49
$GPBOD,,T,,M,,*47
$GPBWC,145242,,,,,,T,,M,,N,,A*7F
$GPVTG,195.4,T,186.2,M,0.0,N,0.0,K,A*27
$GPXTE,A,A,,,N,A*51
$PGRME,3.5,M,8.0,M,8.8,M*20
$PGRMZ,142,f,3*1C
$PGRMM,WGS 84*06
$HCHDG,,,,9.1,E*0F
$GPRTE,1,1,c,*37
$GPRMC,145244,A,5926.1049,N,02450.1363,E,0.0,195.4,260321,9.1,E,A*1C
$GPRMB,A,,,,,,,,,,,,V,A*1C
$GPGGA,145244,5926.1049,N,02450.1363,E,1,11,0.9,42.7,M,17.0,M,,*7E
$GPGSA,A,3,02,04,05,09,16,18,20,25,26,29,31,,1.8,0.9,1.6*39
$GPGSV,3,1,11,02,12,050,41,04,08,318,32,05,33,086,47,09,10,350,25*7C
$GPGSV,3,2,11,16,19,304,37,18,37,198,32,20,02,165,22,25,30,149,41*77
$GPGSV,3,3,11,26,45,292,39,29,76,100,36,31,31,239,38*42
$GPGLL,5926.1049,N,02450.1363,E,145244,A,A*45
$GPBOD,,T,,M,,*47
$GPBWC,145244,,,,,,T,,M,,N,,A*79
$GPVTG,195.4,T,186.2,M,0.0,N,0.0,K,A*27
$GPXTE,A,A,,,N,A*51
$PGRME,3.5,M,7.9,M,8.7,M*29
$PGRMZ,140,f,3*1E
$PGRMM,WGS 84*06
$HCHDG,,,,9.1,E*0F
$GPRTE,1,1,c,*37
$GPRMC,145246,A,5926.1053,N,02450.1368,E,0.0,195.4,260321,9.1,E,A*1E
$GPRMB,A,,,,,,,,,,,,V,A*1C
$GPGGA,145246,5926.1053,N,02450.1368,E,1,11,0.9,42.3,M,17.0,M,,*78
$GPGSA,A,3,02,04,05,09,16,18,20,25,26,29,31,,1.8,0.9,1.6*39
$GPGSV,3,1,11,02,12,050,41,04,08,318,31,05,33,086,47,09,10,350,26*7C
$GPGSV,3,2,11,16,19,304,37,18,37,198,32,20,02,165,23,25,30,149,41*76
$GPGSV,3,3,11,26,45,292,39,29,76,100,36,31,31,239,38*42
$GPGLL,5926.1053,N,02450.1368,E,145246,A,A*47
$GPBOD,,T,,M,,*47
$GPBWC,145246,,,,,,T,,M,,N,,A*7B
$GPVTG,195.4,T,186.2,M,0.0,N,0.0,K,A*27
$GPXTE,A,A,,,N,A*51
$PGRME,3.5,M,7.9,M,8.6,M*28
$PGRMZ,139,f,3*10
$PGRMM,WGS 84*06
$HCHDG,,,,9.1,E*0F
$GPRTE,1,1,c,*37
$GPRMC,145248,A,5926.1056,N,02450.1372,E,0.0,195.4,260321,9.1,E,A*1E
$GPRMB,A,,,,,,,,,,,,V,A*1C
$GPGGA,145248,5926.1056,N,02450.1372,E,1,11,0.9,42.1,M,17.0,M,,*7A
$GPGSA,A,3,02,04,05,09,16,18,20,25,26,29,31,,1.8,0.9,1.6*39
$GPGSV,3,1,11,02,12,050,41,04,08,318,31,05,33,086,47,09,10,350,27*7D
$GPGSV,3,2,11,16,19,304,37,18,37,198,33,20,02,165,23,25,30,149,41*77
$GPGSV,3,3,11,26,45,292,39,29,76,100,36,31,31,239,38*42
$GPGLL,5926.1056,N,02450.1372,E,145248,A,A*47
$GPBOD,,T,,M,,*47
$GPBWC,145248,,,,,,T,,M,,N,,A*75
$GPVTG,195.4,T,186.2,M,0.0,N,0.0,K,A*27
$GPXTE,A,A,,,N,A*51
$PGRME,3.5,M,7.8,M,8.5,M*2A
$PGRMZ,138,f,3*11
$PGRMM,WGS 84*06
$HCHDG,,,,9.1,E*0F
$GPRTE,1,1,c,*37
$GPRMC,145250,A,5926.1058,N,02450.1373,E,0.0,195.4,260321,9.1,E,A*18
$GPRMB,A,,,,,,,,,,,,V,A*1C
$GPGGA,145250,5926.1058,N,02450.1373,E,1,11,0.9,42.0,M,17.0,M,,*7D
$GPGSA,A,3,02,04,05,09,16,18,20,25,26,29,31,,1.8,0.9,1.6*39
$GPGSV,3,1,11,02,12,050,41,04,08,318,30,05,33,086,47,09,10,350,28*73
$GPGSV,3,2,11,16,19,304,37,18,37,198,34,20,02,165,22,25,30,149,41*71
$GPGSV,3,3,11,26,45,292,39,29,76,100,36,31,31,239,38*42
$GPGLL,5926.1058,N,02450.1373,E,145250,A,A*41
$GPBOD,,T,,M,,*47
$GPBWC,145250,,,,,,T,,M,,N,,A*7C
$GPVTG,195.4,T,186.2,M,0.0,N,0.0,K,A*27
$GPXTE,A,A,,,N,A*51
$PGRME,3.5,M,7.7,M,8.5,M*25
$PGRMZ,138,f,3*11
$PGRMM,WGS 84*06
$HCHDG,,,,9.1,E*0F
$GPRTE,1,1,c,*37
$GPRMC,145252,A,5926.1059,N,02450.1370,E,0.0,195.4,260321,9.1,E,A*18
$GPRMB,A,,,,,,,,,,,,V,A*1C
$GPGGA,145252,5926.1059,N,02450.1370,E,1,11,0.9,41.8,M,17.0,M,,*76
$GPGSA,A,3,02,04,05,09,16,18,20,25,26,29,31,,1.8,0.9,1.6*39
$GPGSV,3,1,11,02,12,050,41,04,07,318,30,05,33,086,47,09,10,350,28*7C
$GPGSV,3,2,11,16,19,304,37,18,37,198,34,20,02,165,22,25,30,149,41*71
$GPGSV,3,3,11,26,45,292,39,29,76,100,36,31,31,239,38*42
$GPGLL,5926.1059,N,02450.1370,E,145252,A,A*41
$GPBOD,,T,,M,,*47
$GPBWC,145252,,,,,,T,,M,,N,,A*7E
$GPVTG,195.4,T,186.2,M,0.0,N,0.0,K,A*27
$GPXTE,A,A,,,N,A*51
$PGRME,3.5,M,7.7,M,8.5,M*25
$PGRMZ,137,f,3*1E
$PGRMM,WGS 84*06
$HCHDG,,,,9.1,E*0F
$GPRTE,1,1,c,*37
$GPRMC,145254,A,5926.1060,N,02450.1367,E,0.0,195.4,260321,9.1,E,A*12
$GPRMB,A,,,,,,,,,,,,V,A*1C
$GPGGA,145254,5926.1060,N,02450.1367,E,1,11,0.9,41.7,M,17.0,M,,*73
$GPGSA,A,3,02,04,05,09,16,18,20,25,26,29,31,,1.8,0.9,1.6*39
$GPGSV,3,1,11,02,12,050,41,04,07,318,30,05,33,085,47,09,10,350,27*70
$GPGSV,3,2,11,16,19,304,36,18,37,198,35,20,02,165,22,25,30,149,41*71
$GPGSV,3,3,11,26,45,292,39,29,76,100,36,31,31,239,38*42
$GPGLL,5926.1060,N,02450.1367,E,145254,A,A*4B
$GPBOD,,T,,M,,*47
$GPBWC,145254,,,,,,T,,M,,N,,A*78
$GPVTG,195.4,T,186.2,M,0.0,N,0.0,K,A*27
$GPXTE,A,A,,,N,A*51
$PGRME,3.5,M,7.7,M,8.4,M*24
$PGRMZ,137,f,3*1E
$PGRMM,WGS 84*06
$HCHDG,,,,9.1,E*0F
$GPRTE,1,1,c,*37
$GPRMC,145256,A,5926.1061,N,02450.1368,E,0.0,195.4,260321,9.1,E,A*1E
$GPRMB,A,,,,,,,,,,,,V,A*1C
$GPGGA,145256,5926.1061,N,02450.1368,E,1,11,0.9,41.8,M,17.0,M,,*70
$GPGSA,A,3,02,04,05,09,16,18,20,25,26,29,31,,1.8,0.9,1.6*39
$GPGSV,3,1,11,02,12,050,41,04,07,318,30,05,33,085,47,09,10,350,26*71
$GPGSV,3,2,11,16,19,304,36,18,37,198,35,20,02,165,21,25,30,149,42*71
$GPGSV,3,3,11,26,45,292,39,29,76,100,36,31,31,239,39*43
$GPGLL,5926.1061,N,02450.1368,E,145256,A,A*47
$GPBOD,,T,,M,,*47
$GPBWC,145256,,,,,,T,,M,,N,,A*7A
$GPVTG,195.4,T,186.2,M,0.0,N,0.0,K,A*27
$GPXTE,A,A,,,N,A*51
$PGRME,3.5,M,7.6,M,8.4,M*25
$PGRMZ,137,f,3*1E
$PGRMM,WGS 84*06
$HCHDG,,,,9.1,E*0F
$GPRTE,1,1,c,*37
$GPRMC,145258,A,5926.1062,N,02450.1371,E,0.0,195.4,260321,9.1,E,A*1B
$GPRMB,A,,,,,,,,,,,,V,A*1C
$GPGGA,145258,5926.1062,N,02450.1371,E,1,11,0.9,42.1,M,17.0,M,,*7F
$GPGSA,A,3,02,04,05,09,16,18,20,25,26,29,31,,1.8,0.9,1.6*39
$GPGSV,3,1,11,02,12,050,41,04,07,318,31,05,33,085,46,09,10,350,24*73
$GPGSV,3,2,11,16,19,304,36,18,37,198,35,20,02,165,20,25,30,149,42*70
$GPGSV,3,3,11,26,45,292,39,29,76,100,36,31,31,239,39*43
$GPGLL,5926.1062,N,02450.1371,E,145258,A,A*42
$GPBOD,,T,,M,,*47
$GPBWC,145258,,,,,,T,,M,,N,,A*74
$GPVTG,195.4,T,186.2,M,0.0,N,0.0,K,A*27
$GPXTE,A,A,,,N,A*51
$PGRME,3.5,M,7.6,M,8.4,M*25
$PGRMZ,138,f,3*11
$PGRMM,WGS 84*06
$HCHDG,,,,9.1,E*0F
$GPRTE,1,1,c,*37
$GPRMC,145300,A,5926.1065,N,02450.1375,E,0.0,195.4,260321,9.1,E,A*14
$GPRMB,A,,,,,,,,,,,,V,A*1C
$GPGGA,145300,5926.1065,N,02450.1375,E,1,11,0.9,42.4,M,17.0,M,,*75
$GPGSA,A,3,02,04,05,09,16,18,20,25,26,29,31,,1.8,0.9,1.6*39
$GPGSV,3,1,11,02,12,050,41,04,07,318,31,05,33,085,47,09,10,350,23*75
$GPGSV,3,2,11,16,19,304,36,18,37,198,35,20,02,165,20,25,30,149,42*70
$GPGSV,3,3,11,26,45,292,39,29,76,100,36,31,31,239,40*4D
$GPGLL,5926.1065,N,02450.1375,E,145300,A,A*4D
$GPBOD,,T,,M,,*47
$GPBWC,145300,,,,,,T,,M,,N,,A*78
$GPVTG,195.4,T,186.2,M,0.0,N,0.0,K,A*27
$GPXTE,A,A,,,N,A*51
$PGRME,3.5,M,7.6,M,8.3,M*22
$PGRMZ,139,f,3*10
$PGRMM,WGS 84*06
$HCHDG,,,,9.1,E*0F
$GPRTE,1,1,c,*37
$GPRMC,145302,A,5926.1068,N,02450.1375,E,0.0,195.4,260321,9.1,E,A*1B
$GPRMB,A,,,,,,,,,,,,V,A*1C
$GPGGA,145302,5926.1068,N,02450.1375,E,1,11,0.9,42.4,M,17.0,M,,*7A
$GPGSA,A,3,02,04,05,09,16,18,20,25,26,29,31,,1.8,0.9,1.6*39
$GPGSV,3,1,11,02,12,050,41,04,07,318,31,05,33,085,47,09,10,350,20*76
$GPGSV,3,2,11,16,19,304,36,18,37,198,35,20,02,165,19,25,30,149,42*7A
$GPGSV,3,3,11,26,45,292,38,29,76,100,35,31,31,239,40*4F
$GPGLL,5926.1068,N,02450.1375,E,145302,A,A*42
$GPBOD,,T,,M,,*47
$GPBWC,145302,,,,,,T,,M,,N,,A*7A
$GPVTG,195.4,T,186.2,M,0.0,N,0.0,K,A*27
$GPXTE,A,A,,,N,A*51
$PGRME,3.5,M,7.6,M,8.4,M*25
$PGRMZ,139,f,3*10
$PGRMM,WGS 84*06
$HCHDG,,,,9.1,E*0F
$GPRTE,1,1,c,*37
$GPRMC,145304,A,5926.1071,N,02450.1377,E,0.0,195.4,260321,9.1,E,A*17
$GPRMB,A,,,,,,,,,,,,V,A*1C
$GPGGA,145304,5926.1071,N,02450.1377,E,1,11,0.9,42.6,M,17.0,M,,*74
$GPGSA,A,3,02,04,05,09,16,18,20,25,26,29,31,,1.8,0.9,1.6*39
$GPGSV,3,1,11,02,12,050,41,04,07,318,31,05,33,085,47,09,10,350,20*76
$GPGSV,3,2,11,16,19,304,36,18,37,198,35,20,02,165,19,25,30,149,42*7A
$GPGSV,3,3,11,26,45,292,38,29,76,100,34,31,31,239,40*4E
$GPGLL,5926.1071,N,02450.1377,E,145304,A,A*4E
$GPBOD,,T,,M,,*47
$GPBWC,145304,,,,,,T,,M,,N,,A*7C
$GPVTG,195.4,T,186.2,M,0.0,N,0.0,K,A*27
$GPXTE,A,A,,,N,A*51
$PGRME,3.5,M,7.7,M,8.4,M*24
$PGRMZ,140,f,3*1E
$PGRMM,WGS 84*06
$HCHDG,,,,9.1,E*0F
$GPRTE,1,1,c,*37
$GPRMC,145306,A,5926.1073,N,02450.1380,E,0.0,195.4,260321,9.1,E,A*1F
$GPRMB,A,,,,,,,,,,,,V,A*1C
$GPGGA,145306,5926.1073,N,02450.1380,E,1,11,0.9,42.8,M,17.0,M,,*72
$GPGSA,A,3,02,04,05,09,16,18,20,25,26,29,31,,1.8,0.9,1.6*39
$GPGSV,3,1,11,02,12,050,41,04,07,318,31,05,33,085,47,09,10,350,19*7C
$GPGSV,3,2,11,16,19,304,36,18,37,198,35,20,02,165,18,25,30,149,42*7B
$GPGSV,3,3,11,26,45,292,38,29,76,100,34,31,31,239,41*4F
$GPGLL,5926.1073,N,02450.1380,E,145306,A,A*46
$GPBOD,,T,,M,,*47
$GPBWC,145306,,,,,,T,,M,,N,,A*7E
$GPVTG,195.4,T,186.2,M,0.0,N,0.0,K,A*27
$GPXTE,A,A,,,N,A*51
$PGRME,3.5,M,7.7,M,8.5,M*25
$PGRMZ,140,f,3*1E
$PGRMM,WGS 84*06
$HCHDG,,,,9.1,E*0F
$GPRTE,1,1,c,*37
$GPRMC,145308,A,5926.1075,N,02450.1381,E,0.0,195.4,260321,9.1,E,A*16
$GPRMB,A,,,,,,,,,,,,V,A*1C
$GPGGA,145308,5926.1075,N,02450.1381,E,1,11,0.9,42.9,M,17.0,M,,*7A
$GPGSA,A,3,02,04,05,09,16,18,20,25,26,29,31,,1.8,0.9,1.6*39
$GPGSV,3,1,11,02,12,050,41,04,07,318,31,05,33,085,47,09,10,350,19*7C
$GPGSV,3,2,11,16,19,304,36,18,37,198,36,20,02,165,15,25,30,149,42*75
$GPGSV,3,3,11,26,45,292,38,29,76,100,34,31,31,239,41*4F
$GPGLL,5926.1075,N,02450.1381,E,145308,A,A*4F
$GPBOD,,T,,M,,*47
$GPBWC,145308,,,,,,T,,M,,N,,A*70
$GPVTG,195.4,T,186.2,M,0.0,N,0.0,K,A*27
$GPXTE,A,A,,,N,A*51
$PGRME,3.4,M,7.8,M,8.5,M*2B
$PGRMZ,141,f,3*1F
$PGRMM,WGS 84*06
$HCHDG,,,,9.1,E*0F
$GPRTE,1,1,c,*37
$GPRMC,145312,A,5926.1078,N,02450.1388,E,0.0,195.4,260321,9.1,E,A*19
$GPRMB,A,,,,,,,,,,,,V,A*1C
$GPGGA,145312,5926.1078,N,02450.1388,E,1,11,0.9,44.0,M,17.0,M,,*7A
$GPGSA,A,3,02,04,05,09,16,18,20,25,26,29,31,,1.8,0.9,1.6*39
$GPGSV,3,1,11,02,12,050,41,04,07,318,31,05,33,085,47,09,10,350,19*7C
$GPGSV,3,2,11,16,19,304,36,18,37,198,36,20,02,165,11,25,30,149,42*71
$GPGSV,3,3,11,26,45,292,38,29,76,100,35,31,31,239,41*4E
$GPGLL,5926.1078,N,02450.1388,E,145312,A,A*40
$GPBOD,,T,,M,,*47
$GPBWC,145312,,,,,,T,,M,,N,,A*7B
$GPVTG,195.4,T,186.2,M,0.0,N,0.0,K,A*27
$GPXTE,A,A,,,N,A*51
$PGRME,3.4,M,7.8,M,8.5,M*2B
$PGRMZ,144,f,3*1A
$PGRMM,WGS 84*06
$HCHDG,,,,9.1,E*0F
$GPRTE,1,1,c,*37
$GPRMC,145314,A,5926.1079,N,02450.1389,E,0.0,195.4,260321,9.1,E,A*1F
$GPRMB,A,,,,,,,,,,,,V,A*1C
$GPGGA,145314,5926.1079,N,02450.1389,E,1,11,0.9,44.3,M,17.0,M,,*7F
$GPGSA,A,3,02,04,05,09,16,18,20,25,26,29,31,,1.8,0.9,1.6*39
$GPGSV,3,1,11,02,12,050,41,04,07,318,31,05,33,085,47,09,10,350,19*7C
$GPGSV,3,2,11,16,19,304,36,18,37,198,36,20,02,165,00,25,30,149,42*71
$GPGSV,3,3,11,26,45,292,38,29,76,100,35,31,31,239,42*4D
$GPGLL,5926.1079,N,02450.1389,E,145314,A,A*46
$GPBOD,,T,,M,,*47
$GPBWC,145314,,,,,,T,,M,,N,,A*7D
$GPVTG,195.4,T,186.2,M,0.0,N,0.0,K,A*27
$GPXTE,A,A,,,N,A*51
$PGRME,3.4,M,7.7,M,8.4,M*25
$PGRMZ,145,f,3*1B
$PGRMM,WGS 84*06
$HCHDG,,,,9.1,E*0F
$GPRTE,1,1,c,*37
$GPRMC,145316,A,5926.1080,N,02450.1389,E,0.0,195.4,260321,9.1,E,A*1B
$GPRMB,A,,,,,,,,,,,,V,A*1C
$GPGGA,145316,5926.1080,N,02450.1389,E,1,11,0.9,44.5,M,17.0,M,,*7D
$GPGSA,A,3,02,04,05,09,16,18,20,25,26,29,31,,1.8,0.9,1.6*39
$GPGSV,3,1,11,02,12,050,41,04,07,318,30,05,33,085,47,09,10,350,19*7D
$GPGSV,3,2,11,16,19,304,36,18,37,198,36,20,02,165,00,25,30,149,42*71
$GPGSV,3,3,11,26,45,292,38,29,76,100,35,31,31,239,41*4E
$GPGLL,5926.1080,N,02450.1389,E,145316,A,A*42
$GPBOD,,T,,M,,*47
$GPBWC,145316,,,,,,T,,M,,N,,A*7F
$GPVTG,195.4,T,186.2,M,0.0,N,0.0,K,A*27
$GPXTE,A,A,,,N,A*51
$PGRME,3.4,M,7.7,M,8.4,M*25
$PGRMZ,146,f,3*18
$PGRMM,WGS 84*06
$HCHDG,,,,9.1,E*0F
$GPRTE,1,1,c,*37
$GPRMC,145319,A,5926.1080,N,02450.1389,E,0.0,195.4,260321,9.1,E,A*14
$GPRMB,A,,,,,,,,,,,,V,A*1C
$GPGGA,145319,5926.1080,N,02450.1389,E,1,11,0.9,45.0,M,17.0,M,,*76
$GPGSA,A,3,02,04,05,09,16,18,20,25,26,29,31,,1.8,0.9,1.6*39
$GPGSV,3,1,11,02,12,050,41,04,07,318,30,05,33,085,47,09,10,350,18*7C
$GPGSV,3,2,11,16,19,304,36,18,37,198,36,20,02,165,15,25,30,149,42*75
$GPGSV,3,3,11,26,45,292,38,29,76,100,36,31,31,239,41*4D
$GPGLL,5926.1080,N,02450.1389,E,145319,A,A*4D
$GPBOD,,T,,M,,*47
$GPBWC,145319,,,,,,T,,M,,N,,A*70
$GPVTG,195.4,T,186.2,M,0.0,N,0.0,K,A*27
$GPXTE,A,A,,,N,A*51
$PGRME,3.4,M,7.6,M,8.3,M*23
$PGRMZ,148,f,3*16
$PGRMM,WGS 84*06
$HCHDG,,,,9.1,E*0F
$GPRTE,1,1,c,*37
$GPRMC,145321,A,5926.1080,N,02450.1392,E,0.0,195.4,260321,9.1,E,A*15
$GPRMB,A,,,,,,,,,,,,V,A*1C
$GPGGA,145321,5926.1080,N,02450.1392,E,1,11,0.9,45.4,M,17.0,M,,*73
$GPGSA,A,3,02,04,05,09,16,18,20,25,26,29,31,,1.8,0.9,1.6*39
$GPGSV,3,1,11,02,12,050,41,04,07,318,30,05,33,085,48,09,10,350,00*7A
$GPGSV,3,2,11,16,19,304,36,18,38,198,36,20,02,165,17,25,30,149,42*78
$GPGSV,3,3,11,26,45,292,39,29,76,100,36,31,31,239,41*4C
$GPGLL,5926.1080,N,02450.1392,E,145321,A,A*4C
$GPBOD,,T,,M,,*47
$GPBWC,145321,,,,,,T,,M,,N,,A*7B
$GPVTG,195.4,T,186.2,M,0.0,N,0.0,K,A*27
$GPXTE,A,A,,,N,A*51
$PGRME,3.4,M,7.6,M,8.3,M*23
$PGRMZ,149,f,3*17
$PGRMM,WGS 84*06
$HCHDG,,,,9.1,E*0F
$GPRTE,1,1,c,*37
$GPRMC,145323,A,5926.1080,N,02450.1392,E,0.0,195.4,260321,9.1,E,A*17
$GPRMB,A,,,,,,,,,,,,V,A*1C
$GPGGA,145323,5926.1080,N,02450.1392,E,1,11,0.9,45.8,M,17.0,M,,*7D
$GPGSA,A,3,02,04,05,09,16,18,20,25,26,29,31,,1.8,0.9,1.6*39
$GPGSV,3,1,11,02,12,050,41,04,07,318,29,05,33,085,47,09,10,350,18*74
$GPGSV,3,2,11,16,19,304,36,18,38,198,37,20,02,165,17,25,30,149,42*79
$GPGSV,3,3,11,26,45,292,39,29,76,100,36,31,31,239,41*4C
$GPGLL,5926.1080,N,02450.1392,E,145323,A,A*4E
$GPBOD,,T,,M,,*47
$GPBWC,145323,,,,,,T,,M,,N,,A*79
$GPVTG,195.4,T,186.2,M,0.0,N,0.0,K,A*27
$GPXTE,A,A,,,N,A*51
$PGRME,3.4,M,7.5,M,8.3,M*20
$PGRMZ,150,f,3*1F
$PGRMM,WGS 84*06
$HCHDG,,,,9.1,E*0F
$GPRTE,1,1,c,*37
$GPRMC,145325,A,5926.1081,N,02450.1390,E,0.0,195.4,260321,9.1,E,A*12
$GPRMB,A,,,,,,,,,,,,V,A*1C
$GPGGA,145325,5926.1081,N,02450.1390,E,1,11,0.9,45.9,M,17.0,M,,*79
$GPGSA,A,3,02,04,05,09,16,18,20,25,26,29,31,,1.8,0.9,1.6*39
$GPGSV,3,1,11,02,12,050,41,04,07,318,29,05,33,085,47,09,10,350,18*74
$GPGSV,3,2,11,16,19,304,36,18,38,198,37,20,02,165,17,25,30,149,42*79
$GPGSV,3,3,11,26,45,292,38,29,76,100,36,31,31,239,41*4D
$GPGLL,5926.1081,N,02450.1390,E,145325,A,A*4B
$GPBOD,,T,,M,,*47
$GPBWC,145325,,,,,,T,,M,,N,,A*7F
$GPVTG,195.4,T,186.2,M,0.0,N,0.0,K,A*27
$GPXTE,A,A,,,N,A*51
$PGRME,3.4,M,7.5,M,8.2,M*21
$PGRMZ,151,f,3*1E
$PGRMM,WGS 84*06
$HCHDG,,,,9.1,E*0F
$GPRTE,1,1,c,*37
$GPRMC,145327,A,5926.1082,N,02450.1386,E,0.0,195.4,260321,9.1,E,A*14
$GPRMB,A,,,,,,,,,,,,V,A*1C
$GPGGA,145327,5926.1082,N,02450.1386,E,1,11,0.9,46.3,M,17.0,M,,*76
$GPGSA,A,3,02,04,05,09,16,18,20,25,26,29,31,,1.8,0.9,1.6*39
$GPGSV,3,1,11,02,12,050,41,04,07,318,29,05,33,085,47,09,10,350,18*74
$GPGSV,3,2,11,16,19,304,36,18,38,198,37,20,02,165,17,25,30,149,42*79
$GPGSV,3,3,11,26,45,292,38,29,76,100,36,31,31,239,41*4D
$GPGLL,5926.1082,N,02450.1386,E,145327,A,A*4D
$GPBOD,,T,,M,,*47
$GPBWC,145327,,,,,,T,,M,,N,,A*7D
$GPVTG,195.4,T,186.2,M,0.0,N,0.0,K,A*27
$GPXTE,A,A,,,N,A*51
$PGRME,3.2,M,7.4,M,8.0,M*24
$PGRMZ,152,f,3*1D
$PGRMM,WGS 84*06
$HCHDG,,,,9.1,E*0F
$GPRTE,1,1,c,*37
$GPRMC,145329,A,5926.1081,N,02450.1381,E,0.0,195.4,260321,9.1,E,A*1E
$GPRMB,A,,,,,,,,,,,,V,A*1C
$GPGGA,145329,5926.1081,N,02450.1381,E,1,11,0.9,46.9,M,17.0,M,,*76
$GPGSA,A,3,02,04,05,09,16,18,20,25,26,29,31,,1.8,0.9,1.6*39
$GPGSV,3,1,11,02,12,050,41,04,07,318,29,05,33,085,48,09,10,350,18*7B
$GPGSV,3,2,11,16,19,304,36,18,38,198,38,20,02,165,18,25,30,149,42*79
$GPGSV,3,3,11,26,45,292,39,29,76,100,37,31,31,239,41*4D
$GPGLL,5926.1081,N,02450.1381,E,145329,A,A*47
$GPBOD,,T,,M,,*47
$GPBWC,145329,,,,,,T,,M,,N,,A*73
$GPVTG,195.4,T,186.2,M,0.0,N,0.0,K,A*27
$GPXTE,A,A,,,N,A*51
$PGRME,3.1,M,7.2,M,7.9,M*27
$PGRMZ,154,f,3*1B
$PGRMM,WGS 84*06
$HCHDG,,,,9.1,E*0F
$GPRTE,1,1,c,*37
$GPRMC,145332,A,5926.1080,N,02450.1379,E,0.0,195.4,260321,9.1,E,A*12
$GPRMB,A,,,,,,,,,,,,V,A*1C
$GPGGA,145332,5926.1080,N,02450.1379,E,1,11,0.9,47.8,M,17.0,M,,*7A
$GPGSA,A,3,02,04,05,09,16,18,20,25,26,29,31,,1.8,0.9,1.6*39
$GPGSV,3,1,11,02,12,050,41,04,07,318,29,05,33,085,47,09,10,350,17*7B
$GPGSV,3,2,11,16,19,304,36,18,38,198,38,20,02,165,18,25,30,149,42*79
$GPGSV,3,3,11,26,45,292,38,29,76,100,37,31,31,239,40*4D
$GPGLL,5926.1080,N,02450.1379,E,145332,A,A*4B
$GPBOD,,T,,M,,*47
$GPBWC,145332,,,,,,T,,M,,N,,A*79
$GPVTG,195.4,T,186.2,M,0.0,N,0.0,K,A*27
$GPXTE,A,A,,,N,A*51
$PGRME,3.1,M,7.2,M,7.9,M*27
$PGRMZ,157,f,3*18
$PGRMM,WGS 84*06
$HCHDG,,,,9.1,E*0F
$GPRTE,1,1,c,*37
$GPRMC,145334,A,5926.1078,N,02450.1379,E,0.0,195.4,260321,9.1,E,A*13
$GPRMB,A,,,,,,,,,,,,V,A*1C
$GPGGA,145334,5926.1078,N,02450.1379,E,1,11,0.9,48.6,M,17.0,M,,*7A
$GPGSA,A,3,02,04,05,09,16,18,20,25,26,29,31,,1.8,0.9,1.6*39
$GPGSV,3,1,11,02,12,050,41,04,07,318,29,05,33,085,47,09,10,350,16*7A
$GPGSV,3,2,11,16,19,304,36,18,38,198,38,20,02,165,17,25,30,149,42*76
$GPGSV,3,3,11,26,45,292,38,29,76,100,37,31,31,239,40*4D
$GPGLL,5926.1078,N,02450.1379,E,145334,A,A*4A
$GPBOD,,T,,M,,*47
$GPBWC,145334,,,,,,T,,M,,N,,A*7F
$GPVTG,195.4,T,186.2,M,0.0,N,0.0,K,A*27
$GPXTE,A,A,,,N,A*51
$PGRME,3.1,M,7.0,M,7.7,M*2B
$PGRMZ,160,f,3*1C
$PGRMM,WGS 84*06
$HCHDG,,,,9.1,E*0F
$GPRTE,1,1,c,*37
$GPRMC,145336,A,5926.1077,N,02450.1378,E,0.0,195.4,260321,9.1,E,A*1F
$GPRMB,A,,,,,,,,,,,,V,A*1C
$GPGGA,145336,5926.1077,N,02450.1378,E,1,11,0.9,48.7,M,17.0,M,,*77
$GPGSA,A,3,02,04,05,09,16,18,20,25,26,29,31,,1.8,0.9,1.6*39
$GPGSV,3,1,11,02,12,050,41,04,07,318,29,05,33,085,47,09,10,350,17*7B
$GPGSV,3,2,11,16,19,304,36,18,38,198,38,20,02,165,17,25,30,149,42*76
$GPGSV,3,3,11,26,45,291,38,29,76,100,37,31,31,239,39*40
$GPGLL,5926.1077,N,02450.1378,E,145336,A,A*46
$GPBOD,,T,,M,,*47
$GPBWC,145336,,,,,,T,,M,,N,,A*7D
$GPVTG,195.4,T,186.2,M,0.0,N,0.0,K,A*27
$GPXTE,A,A,,,N,A*51
$PGRME,3.0,M,6.8,M,7.5,M*21
$PGRMZ,160,f,3*1C
$PGRMM,WGS 84*06
$HCHDG,,,,9.1,E*0F
$GPRTE,1,1,c,*37
$GPRMC,145338,A,5926.1074,N,02450.1378,E,0.0,195.4,260321,9.1,E,A*12
$GPRMB,A,,,,,,,,,,,,V,A*1C
$GPGGA,145338,5926.1074,N,02450.1378,E,1,11,0.9,48.4,M,17.0,M,,*79
$GPGSA,A,3,02,04,05,09,16,18,20,25,26,29,31,,1.8,0.9,1.6*39
$GPGSV,3,1,11,02,12,050,41,04,07,318,29,05,33,085,47,09,10,350,18*74
$GPGSV,3,2,11,16,19,304,36,18,38,198,38,20,02,165,17,25,30,149,42*76
$GPGSV,3,3,11,26,45,291,39,29,76,100,38,31,31,239,38*4F
$GPGLL,5926.1074,N,02450.1378,E,145338,A,A*4B
$GPBOD,,T,,M,,*47
$GPBWC,145338,,,,,,T,,M,,N,,A*73
$GPVTG,195.4,T,186.2,M,0.0,N,0.0,K,A*27
$GPXTE,A,A,,,N,A*51
$PGRME,3.0,M,6.5,M,7.2,M*2B
$PGRMZ,159,f,3*16
$PGRMM,WGS 84*06
$HCHDG,,,,9.1,E*0F
$GPRTE,1,1,c,*37
$GPRMC,145340,A,5926.1071,N,02450.1382,E,0.0,195.4,260321,9.1,E,A*1D
$GPRMB,A,,,,,,,,,,,,V,A*1C
$GPGGA,145340,5926.1071,N,02450.1382,E,1,11,0.9,48.1,M,17.0,M,,*73
$GPGSA,A,3,02,04,05,09,16,18,20,25,26,29,31,,1.8,0.9,1.6*39
$GPGSV,3,1,11,02,12,050,41,04,07,318,28,05,33,085,47,09,10,350,18*75
$GPGSV,3,2,11,16,19,304,36,18,38,198,38,20,02,165,17,25,30,149,42*76
$GPGSV,3,3,11,26,45,291,38,29,76,100,38,31,31,239,38*4E
$GPGLL,5926.1071,N,02450.1382,E,145340,A,A*44
$GPBOD,,T,,M,,*47
$GPBWC,145340,,,,,,T,,M,,N,,A*7C
$GPVTG,195.4,T,186.2,M,0.0,N,0.0,K,A*27
$GPXTE,A,A,,,N,A*51
$PGRME,3.0,M,6.4,M,7.0,M*28
$PGRMZ,158,f,3*17
$PGRMM,WGS 84*06
$HCHDG,,,,9.1,E*0F
$GPRTE,1,1,c,*37
$GPRMC,145342,A,5926.1067,N,02450.1386,E,0.0,195.4,260321,9.1,E,A*1C
$GPRMB,A,,,,,,,,,,,,V,A*1C
$GPGGA,145342,5926.1067,N,02450.1386,E,1,11,0.9,48.1,M,17.0,M,,*72
$GPGSA,A,3,02,04,05,09,16,18,20,25,26,29,31,,1.9,0.9,1.7*39
$GPGSV,3,1,11,02,12,050,41,04,07,318,00,05,33,085,47,09,10,350,19*7E
$GPGSV,3,2,11,16,19,304,36,18,38,198,38,20,02,165,17,25,30,149,42*76
$GPGSV,3,3,11,26,45,291,38,29,76,100,38,31,31,239,39*4F
$GPGLL,5926.1067,N,02450.1386,E,145342,A,A*45
$GPBOD,,T,,M,,*47
$GPBWC,145342,,,,,,T,,M,,N,,A*7E
$GPVTG,195.4,T,186.2,M,0.0,N,0.0,K,A*27
$GPXTE,A,A,,,N,A*51
$PGRME,3.0,M,6.3,M,7.0,M*2F
$PGRMZ,158,f,3*17
$PGRMM,WGS 84*06
$HCHDG,,,,9.1,E*0F
$GPRTE,1,1,c,*37
$GPRMC,145344,A,5926.1065,N,02450.1390,E,0.0,195.4,260321,9.1,E,A*1F
$GPRMB,A,,,,,,,,,,,,V,A*1C
$GPGGA,145344,5926.1065,N,02450.1390,E,1,11,0.9,48.4,M,17.0,M,,*74
$GPGSA,A,3,02,04,05,09,16,18,20,25,26,29,31,,1.9,0.9,1.7*39
$GPGSV,3,1,11,02,12,050,41,04,07,318,00,05,33,085,47,09,10,350,20*74
$GPGSV,3,2,11,16,19,304,36,18,38,198,38,20,02,165,17,25,30,149,42*76
$GPGSV,3,3,11,26,45,291,39,29,76,100,39,31,31,239,39*4F
$GPGLL,5926.1065,N,02450.1390,E,145344,A,A*46
$GPBOD,,T,,M,,*47
$GPBWC,145344,,,,,,T,,M,,N,,A*78
$GPVTG,195.4,T,186.2,M,0.0,N,0.0,K,A*27
$GPXTE,A,A,,,N,A*51
$PGRME,3.0,M,6.2,M,6.9,M*26
$PGRMZ,159,f,3*16
$PGRMM,WGS 84*06
$HCHDG,,,,9.1,E*0F
$GPRTE,1,1,c,*37
$GPRMC,145346,A,5926.1063,N,02450.1391,E,0.0,195.4,260321,9.1,E,A*1A
$GPRMB,A,,,,,,,,,,,,V,A*1C
$GPGGA,145346,5926.1063,N,02450.1391,E,1,11,0.9,48.5,M,17.0,M,,*70
$GPGSA,A,3,02,04,05,09,16,18,20,25,26,29,31,,1.9,0.9,1.7*39
$GPGSV,3,1,11,02,12,050,41,04,07,318,00,05,33,085,47,09,10,350,21*75
$GPGSV,3,2,11,16,19,304,36,18,38,198,38,20,02,165,16,25,30,149,41*74
$GPGSV,3,3,11,26,45,291,38,29,76,100,39,31,31,239,39*4E
$GPGLL,5926.1063,N,02450.1391,E,145346,A,A*43
$GPBOD,,T,,M,,*47
$GPBWC,145346,,,,,,T,,M,,N,,A*7A
$GPVTG,195.4,T,186.2,M,0.0,N,0.0,K,A*27
$GPXTE,A,A,,,N,A*51
$PGRME,3.0,M,6.3,M,7.0,M*2F
$PGRMZ,159,f,3*16
$PGRMM,WGS 84*06
$HCHDG,,,,9.1,E*0F
$GPRTE,1,1,c,*37
$GPRMC,145348,A,5926.1061,N,02450.1391,E,0.0,195.4,260321,9.1,E,A*16
$GPRMB,A,,,,,,,,,,,,V,A*1C
$GPGGA,145348,5926.1061,N,02450.1391,E,1,11,0.9,48.4,M,17.0,M,,*7D
$GPGSA,A,3,02,04,05,09,16,18,20,25,26,29,31,,1.9,0.9,1.7*39
$GPGSV,3,1,11,02,12,050,41,04,07,318,00,05,33,085,47,09,10,350,21*75
$GPGSV,3,2,11,16,19,304,36,18,38,198,38,20,02,165,16,25,30,149,41*74
$GPGSV,3,3,11,26,45,291,38,29,76,100,39,31,31,239,39*4E
$GPGLL,5926.1061,N,02450.1391,E,145348,A,A*4F
$GPBOD,,T,,M,,*47
$GPBWC,145348,,,,,,T,,M,,N,,A*74
$GPVTG,195.4,T,186.2,M,0.0,N,0.0,K,A*27
$GPXTE,A,A,,,N,A*51
$PGRME,3.0,M,6.3,M,7.0,M*2F
$PGRMZ,159,f,3*16
$PGRMM,WGS 84*06
$HCHDG,,,,9.1,E*0F
$GPRTE,1,1,c,*37
$GPRMC,145350,A,5926.1059,N,02450.1392,E,0.0,195.4,260321,9.1,E,A*17
$GPRMB,A,,,,,,,,,,,,V,A*1C
$GPGGA,145350,5926.1059,N,02450.1392,E,1,11,0.9,48.3,M,17.0,M,,*7B
$GPGSA,A,3,02,04,05,09,16,18,20,25,26,29,31,,1.9,0.9,1.7*39
$GPGSV,3,1,11,02,12,050,41,04,07,318,00,05,33,085,47,09,10,350,23*77
$GPGSV,3,2,11,16,19,304,36,18,38,198,38,20,02,165,15,25,30,149,41*77
$GPGSV,3,3,11,26,45,291,38,29,76,100,39,31,31,239,38*4F
$GPGLL,5926.1059,N,02450.1392,E,145350,A,A*4E
$GPBOD,,T,,M,,*47
$GPBWC,145350,,,,,,T,,M,,N,,A*7D
$GPVTG,195.4,T,186.2,M,0.0,N,0.0,K,A*27
$GPXTE,A,A,,,N,A*51
$PGRME,3.1,M,6.4,M,7.1,M*28
$PGRMZ,158,f,3*17
$PGRMM,WGS 84*06
$HCHDG,,,,9.1,E*0F
$GPRTE,1,1,c,*37
$GPRMC,145352,A,5926.1058,N,02450.1392,E,0.0,195.4,260321,9.1,E,A*14
$GPRMB,A,,,,,,,,,,,,V,A*1C
$GPGGA,145352,5926.1058,N,02450.1392,E,1,11,0.9,48.4,M,17.0,M,,*7F
$GPGSA,A,3,02,04,05,09,16,18,20,25,26,29,31,,1.9,0.9,1.7*39
$GPGSV,3,1,11,02,12,050,41,04,07,318,00,05,33,085,47,09,10,350,23*77
$GPGSV,3,2,11,16,19,304,36,18,38,198,38,20,02,165,14,25,30,149,42*75
$GPGSV,3,3,11,26,45,291,38,29,76,100,39,31,31,239,38*4F
$GPGLL,5926.1058,N,02450.1392,E,145352,A,A*4D
$GPBOD,,T,,M,,*47
$GPBWC,145352,,,,,,T,,M,,N,,A*7F
$GPVTG,195.4,T,186.2,M,0.0,N,0.0,K,A*27
$GPXTE,A,A,,,N,A*51
$PGRME,3.1,M,6.4,M,7.1,M*28
$PGRMZ,159,f,3*16
$PGRMM,WGS 84*06
$HCHDG,,,,9.1,E*0F
$GPRTE,1,1,c,*37
$GPRMC,145355,A,5926.1057,N,02450.1394,E,0.0,195.4,260321,9.1,E,A*1A
$GPRMB,A,,,,,,,,,,,,V,A*1C
$GPGGA,145355,5926.1057,N,02450.1394,E,1,11,0.9,48.7,M,17.0,M,,*72
$GPGSA,A,3,02,04,05,09,16,18,20,25,26,29,31,,1.9,0.9,1.7*39
$GPGSV,3,1,11,02,12,050,41,04,07,318,00,05,33,085,47,09,10,350,19*7E
$GPGSV,3,2,11,16,19,304,37,18,38,198,38,20,02,165,00,25,30,149,42*71
$GPGSV,3,3,11,26,45,291,38,29,76,100,39,31,31,239,38*4F
$GPGLL,5926.1057,N,02450.1394,E,145355,A,A*43
$GPBOD,,T,,M,,*47
$GPBWC,145355,,,,,,T,,M,,N,,A*78
$GPVTG,195.4,T,186.2,M,0.0,N,0.0,K,A*27
$GPXTE,A,A,,,N,A*51
$PGRME,3.1,M,6.3,M,7.1,M*2F
$PGRMZ,160,f,3*1C
$PGRMM,WGS 84*06
$HCHDG,,,,9.1,E*0F
$GPRTE,1,1,c,*37
$GPRMC,145357,A,5926.1056,N,02450.1394,E,0.0,195.4,260321,9.1,E,A*19
$GPRMB,A,,,,,,,,,,,,V,A*1C
$GPGGA,145357,5926.1056,N,02450.1394,E,1,11,0.9,48.5,M,17.0,M,,*73
$GPGSA,A,3,02,04,05,09,16,18,20,25,26,29,31,,1.9,0.9,1.7*39
$GPGSV,3,1,11,02,12,050,41,04,07,317,00,05,33,085,47,09,10,350,18*70
$GPGSV,3,2,11,16,19,304,37,18,38,198,38,20,02,165,00,25,30,149,42*71
$GPGSV,3,3,11,26,45,291,38,29,76,100,39,31,31,239,38*4F
$GPGLL,5926.1056,N,02450.1394,E,145357,A,A*40
$GPBOD,,T,,M,,*47
$GPBWC,145357,,,,,,T,,M,,N,,A*7A
$GPVTG,195.4,T,186.2,M,0.0,N,0.0,K,A*27
$GPXTE,A,A,,,N,A*51
$PGRME,3.2,M,6.3,M,7.0,M*2D
$PGRMZ,159,f,3*16
$PGRMM,WGS 84*06
$HCHDG,,,,9.1,E*0F
$GPRTE,1,1,c,*37
$GPRMC,145359,A,5926.1056,N,02450.1393,E,0.0,195.4,260321,9.1,E,A*10
$GPRMB,A,,,,,,,,,,,,V,A*1C
$GPGGA,145359,5926.1056,N,02450.1393,E,1,11,0.9,48.2,M,17.0,M,,*7D
$GPGSA,A,3,02,04,05,09,16,18,20,25,26,29,31,,1.9,0.9,1.7*39
$GPGSV,3,1,11,02,12,050,41,04,07,317,00,05,33,085,47,09,10,350,17*7F
$GPGSV,3,2,11,16,19,304,37,18,38,198,38,20,02,165,00,25,30,149,42*71
$GPGSV,3,3,11,26,45,291,38,29,76,100,39,31,31,239,38*4F
$GPGLL,5926.1056,N,02450.1393,E,145359,A,A*49
$GPBOD,,T,,M,,*47
$GPBWC,145359,,,,,,T,,M,,N,,A*74
$GPVTG,195.4,T,186.2,M,0.0,N,0.0,K,A*27
$GPXTE,A,A,,,N,A*51
$PGRME,3.2,M,6.3,M,7.1,M*2C
$PGRMZ,158,f,3*17
$PGRMM,WGS 84*06
$HCHDG,,,,9.1,E*0F
$GPRTE,1,1,c,*37
$GPRMC,145401,A,5926.1056,N,02450.1392,E,0.0,195.4,260321,9.1,E,A*1B
$GPRMB,A,,,,,,,,,,,,V,A*1C
$GPGGA,145401,5926.1056,N,02450.1392,E,1,11,0.9,48.1,M,17.0,M,,*75
$GPGSA,A,3,02,04,05,09,16,18,20,25,26,29,31,,1.9,0.9,1.7*39
$GPGSV,3,1,11,02,12,050,41,04,07,317,00,05,33,085,47,09,10,350,17*7F
$GPGSV,3,2,11,16,19,304,36,18,38,198,38,20,02,165,00,25,30,149,42*70
$GPGSV,3,3,11,26,45,291,38,29,76,100,39,31,31,239,39*4E
$GPGLL,5926.1056,N,02450.1392,E,145401,A,A*42
$GPBOD,,T,,M,,*47
$GPBWC,145401,,,,,,T,,M,,N,,A*7E
$GPVTG,195.4,T,186.2,M,0.0,N,0.0,K,A*27
$GPXTE,A,A,,,N,A*51
$PGRME,3.2,M,6.3,M,7.1,M*2C
$PGRMZ,158,f,3*17
$PGRMM,WGS 84*06
$HCHDG,,,,9.1,E*0F
$GPRTE,1,1,c,*37
$GPRMC,145403,A,5926.1057,N,02450.1394,E,0.0,195.4,260321,9.1,E,A*1E
$GPRMB,A,,,,,,,,,,,,V,A*1C
$GPGGA,145403,5926.1057,N,02450.1394,E,1,11,0.9,48.4,M,17.0,M,,*75
$GPGSA,A,3,02,04,05,09,16,18,20,25,26,29,31,,1.9,0.9,1.7*39
$GPGSV,3,1,11,02,12,050,41,04,07,317,00,05,33,085,47,09,10,350,17*7F
$GPGSV,3,2,11,16,19,304,36,18,38,198,38,20,02,165,00,25,30,149,42*70
$GPGSV,3,3,11,26,45,291,38,29,76,100,39,31,31,239,39*4E
$GPGLL,5926.1057,N,02450.1394,E,145403,A,A*47
$GPBOD,,T,,M,,*47
$GPBWC,145403,,,,,,T,,M,,N,,A*7C
$GPVTG,195.4,T,186.2,M,0.0,N,0.0,K,A*27
$GPXTE,A,A,,,N,A*51
$PGRME,3.2,M,6.3,M,7.1,M*2C
$PGRMZ,159,f,3*16
$PGRMM,WGS 84*06
$HCHDG,,,,9.1,E*0F
$GPRTE,1,1,c,*37
$GPRMC,145405,A,5926.1058,N,02450.1396,E,0.0,195.4,260321,9.1,E,A*15
$GPRMB,A,,,,,,,,,,,,V,A*1C
$GPGGA,145405,5926.1058,N,02450.1396,E,1,11,0.9,48.9,M,17.0,M,,*73
$GPGSA,A,3,02,04,05,09,16,18,20,25,26,29,31,,1.9,0.9,1.7*39
$GPGSV,3,1,11,02,12,050,41,04,07,317,00,05,33,085,47,09,10,350,17*7F
$GPGSV,3,2,11,16,19,304,36,18,38,198,39,20,02,165,00,25,30,149,42*71
$GPGSV,3,3,11,26,45,291,38,29,76,100,39,31,31,239,39*4E
$GPGLL,5926.1058,N,02450.1396,E,145405,A,A*4C
$GPBOD,,T,,M,,*47
$GPBWC,145405,,,,,,T,,M,,N,,A*7A
$GPVTG,195.4,T,186.2,M,0.0,N,0.0,K,A*27
$GPXTE,A,A,,,N,A*51
$PGRME,3.3,M,6.4,M,7.2,M*29
$PGRMZ,160,f,3*1C
$PGRMM,WGS 84*06
$HCHDG,,,,9.1,E*0F
$GPRTE,1,1,c,*37
$GPRMC,145407,A,5926.1059,N,02450.1400,E,0.0,195.4,260321,9.1,E,A*1E
$GPRMB,A,,,,,,,,,,,,V,A*1C
$GPGGA,145407,5926.1059,N,02450.1400,E,1,11,0.9,49.5,M,17.0,M,,*75
$GPGSA,A,3,02,04,05,09,16,18,20,25,26,29,31,,1.9,0.9,1.7*39
$GPGSV,3,1,11,02,12,050,41,04,07,317,00,05,33,085,47,09,10,349,17*77
