=~=~=~=~=~=~=~=~=~=~=~= PuTTY log 2021.03.27 16:47:51 =~=~=~=~=~=~=~=~=~=~=~=
$GPRMC,144749,A,5926.1063,N,02450.1351,E,0.0,215.4,270321,9.1,E,A*16
$GPRMB,A,,,,,,,,,,,,V,A*1C
$GPGGA,144749,5926.1063,N,02450.1351,E,1,12,0.7,43.5,M,17.0,M,,*70
$GPGSA,A,3,02,04,05,09,16,18,20,25,26,29,31,39,1.4,0.7,1.2*35
$GPGSV,3,1,12,02,12,050,45,04,08,318,18,05,33,086,45,09,10,350,19*7E
$GPGSV,3,2,12,16,18,304,30,18,37,198,39,20,02,165,26,25,31,149,42*7F
$GPGSV,3,3,12,26,44,292,40,29,77,101,48,31,32,239,37,39,14,136,31*72
$GPGLL,5926.1063,N,02450.1351,E,144749,A,A*45
$GPBOD,,T,,M,,*47
$GPBWC,144749,,,,,,T,,M,,N,,A*70
$GPVTG,215.4,T,206.3,M,0.0,N,0.0,K,A*26
$GPXTE,A,A,,,N,A*51
$PGRME,3.4,M,4.8,M,5.9,M*29
$PGRMZ,143,f,3*1D
$PGRMM,WGS 84*06
$HCHDG,,,,9.1,E*0F
$GPRTE,1,1,c,*37
$GPRMC,144751,A,5926.1062,N,02450.1356,E,0.0,215.4,270321,9.1,E,A*19
$GPRMB,A,,,,,,,,,,,,V,A*1C
$GPGGA,144751,5926.1062,N,02450.1356,E,1,12,0.8,43.1,M,17.0,M,,*74
$GPGSA,A,3,02,04,05,09,16,18,20,25,26,29,31,39,1.4,0.8,1.2*3A
$GPGSV,3,1,12,02,12,050,45,04,08,318,00,05,33,086,45,09,10,350,19*77
$GPGSV,3,2,12,16,18,304,30,18,37,198,38,20,02,165,27,25,31,149,42*7F
$GPGSV,3,3,12,26,44,292,40,29,77,101,48,31,32,239,36,39,14,136,32*70
$GPGLL,5926.1062,N,02450.1356,E,144751,A,A*4A
$GPBOD,,T,,M,,*47
$GPBWC,144751,,,,,,T,,M,,N,,A*79
$GPVTG,215.4,T,206.3,M,0.0,N,0.0,K,A*26
$GPXTE,A,A,,,N,A*51
$PGRME,3.4,M,4.8,M,5.9,M*29
$PGRMZ,142,f,3*1C
$PGRMM,WGS 84*06
$HCHDG,,,,9.1,E*0F
$GPRTE,1,1,c,*37
$GPRMC,144753,A,5926.1063,N,02450.1359,E,0.0,215.4,270321,9.1,E,A*15
$GPRMB,A,,,,,,,,,,,,V,A*1C
$GPGGA,144753,5926.1063,N,02450.1359,E,1,12,0.8,43.0,M,17.0,M,,*79
$GPGSA,A,3,02,04,05,09,16,18,20,25,26,29,31,39,1.4,0.8,1.2*3A
$GPGSV,3,1,12,02,12,050,45,04,08,318,00,05,33,086,45,09,10,350,20*7D
$GPGSV,3,2,12,16,18,304,31,18,37,198,37,20,02,165,27,25,31,149,42*71
$GPGSV,3,3,12,26,44,292,40,29,77,101,48,31,32,239,36,39,14,136,32*70
$GPGLL,5926.1063,N,02450.1359,E,144753,A,A*46
$GPBOD,,T,,M,,*47
$GPBWC,144753,,,,,,T,,M,,N,,A*7B
$GPVTG,215.4,T,206.3,M,0.0,N,0.0,K,A*26
$GPXTE,A,A,,,N,A*51
$PGRME,3.4,M,4.8,M,5.8,M*28
$PGRMZ,141,f,3*1F
$PGRMM,WGS 84*06
$HCHDG,,,,9.1,E*0F
$GPRTE,1,1,c,*37
$GPRMC,144755,A,5926.1065,N,02450.1360,E,0.0,215.4,270321,9.1,E,A*1F
$GPRMB,A,,,,,,,,,,,,V,A*1C
$GPGGA,144755,5926.1065,N,02450.1360,E,1,12,0.8,43.1,M,17.0,M,,*72
$GPGSA,A,3,02,04,05,09,16,18,20,25,26,29,31,39,1.4,0.8,1.2*3A
$GPGSV,3,1,12,02,12,050,45,04,08,318,14,05,33,086,45,09,10,350,21*79
$GPGSV,3,2,12,16,18,304,30,18,37,198,37,20,02,165,26,25,31,149,42*71
$GPGSV,3,3,12,26,44,292,40,29,77,101,48,31,32,239,35,39,14,136,32*73
$GPGLL,5926.1065,N,02450.1360,E,144755,A,A*4C
$GPBOD,,T,,M,,*47
$GPBWC,144755,,,,,,T,,M,,N,,A*7D
$GPVTG,215.4,T,206.3,M,0.0,N,0.0,K,A*26
$GPXTE,A,A,,,N,A*51
$PGRME,3.4,M,4.8,M,5.8,M*28
$PGRMZ,141,f,3*1F
$PGRMM,WGS 84*06
$HCHDG,,,,9.1,E*0F
$GPRTE,1,1,c,*37
$GPRMC,144757,A,5926.1068,N,02450.1359,E,0.1,215.4,270321,9.1,E,A*1B
$GPRMB,A,,,,,,,,,,,,V,A*1C
$GPGGA,144757,5926.1068,N,02450.1359,E,1,12,0.8,43.5,M,17.0,M,,*73
$GPGSA,A,3,02,04,05,09,16,18,20,25,26,29,31,39,1.4,0.8,1.2*3A
$GPGSV,3,1,12,02,12,050,45,04,08,318,00,05,33,086,45,09,10,350,22*7F
$GPGSV,3,2,12,16,18,304,30,18,37,198,38,20,02,165,26,25,31,149,42*7E
$GPGSV,3,3,12,26,44,292,40,29,77,101,47,31,32,239,35,39,14,136,32*7C
$GPGLL,5926.1068,N,02450.1359,E,144757,A,A*49
$GPBOD,,T,,M,,*47
$GPBWC,144757,,,,,,T,,M,,N,,A*7F
$GPVTG,215.4,T,206.3,M,0.1,N,0.1,K,A*26
$GPXTE,A,A,,,N,A*51
$PGRME,3.4,M,4.8,M,5.8,M*28
$PGRMZ,143,f,3*1D
$PGRMM,WGS 84*06
$HCHDG,,,,9.1,E*0F
$GPRTE,1,1,c,*37
$GPRMC,144759,A,5926.1069,N,02450.1356,E,0.0,215.4,270321,9.1,E,A*1A
$GPRMB,A,,,,,,,,,,,,V,A*1C
$GPGGA,144759,5926.1069,N,02450.1356,E,1,12,0.8,43.8,M,17.0,M,,*7E
$GPGSA,A,3,02,04,05,09,16,18,20,25,26,29,31,39,1.4,0.8,1.2*3A
$GPGSV,3,1,12,02,12,050,45,04,08,318,00,05,33,086,45,09,10,350,22*7F
$GPGSV,3,2,12,16,18,304,30,18,37,198,38,20,02,165,26,25,31,149,42*7E
$GPGSV,3,3,12,26,44,292,40,29,77,101,47,31,32,239,35,39,14,136,32*7C
$GPGLL,5926.1069,N,02450.1356,E,144759,A,A*49
$GPBOD,,T,,M,,*47
$GPBWC,144759,,,,,,T,,M,,N,,A*71
$GPVTG,215.4,T,206.3,M,0.0,N,0.0,K,A*26
$GPXTE,A,A,,,N,A*51
$PGRME,3.4,M,4.8,M,5.8,M*28
$PGRMZ,144,f,3*1A
$PGRMM,WGS 84*06
$HCHDG,,,,9.1,E*0F
$GPRTE,1,1,c,*37
$GPRMC,144801,A,5926.1069,N,02450.1354,E,0.0,215.4,270321,9.1,E,A*1A
$GPRMB,A,,,,,,,,,,,,V,A*1C
$GPGGA,144801,5926.1069,N,02450.1354,E,1,12,0.7,44.2,M,17.0,M,,*7C
$GPGSA,A,3,02,04,05,09,16,18,20,25,26,29,31,39,1.4,0.7,1.2*35
$GPGSV,3,1,12,02,12,050,45,04,08,318,15,05,33,086,45,09,10,350,21*78
$GPGSV,3,2,12,16,18,304,30,18,37,198,39,20,02,165,26,25,31,149,42*7F
$GPGSV,3,3,12,26,44,292,39,29,77,101,47,31,32,239,36,39,14,136,32*71
$GPGLL,5926.1069,N,02450.1354,E,144801,A,A*49
$GPBOD,,T,,M,,*47
$GPBWC,144801,,,,,,T,,M,,N,,A*73
$GPVTG,215.4,T,206.3,M,0.0,N,0.0,K,A*26
$GPXTE,A,A,,,N,A*51
$PGRME,3.4,M,4.8,M,5.8,M*28
$PGRMZ,145,f,3*1B
$PGRMM,WGS 84*06
$HCHDG,,,,9.1,E*0F
$GPRTE,1,1,c,*37
$GPRMC,144803,A,5926.1070,N,02450.1354,E,0.0,215.4,270321,9.1,E,A*10
$GPRMB,A,,,,,,,,,,,,V,A*1C
$GPGGA,144803,5926.1070,N,02450.1354,E,1,12,0.7,44.6,M,17.0,M,,*72
$GPGSA,A,3,02,04,05,09,16,18,20,25,26,29,31,39,1.4,0.7,1.2*35
$GPGSV,3,1,12,02,12,050,45,04,08,318,16,05,33,086,45,09,10,350,20*7A
$GPGSV,3,2,12,16,18,304,30,18,37,198,40,20,02,165,26,25,31,149,42*71
$GPGSV,3,3,12,26,44,292,38,29,77,101,47,31,32,239,36,39,14,136,32*70
$GPGLL,5926.1070,N,02450.1354,E,144803,A,A*43
$GPBOD,,T,,M,,*47
$GPBWC,144803,,,,,,T,,M,,N,,A*71
$GPVTG,215.4,T,206.3,M,0.0,N,0.0,K,A*26
$GPXTE,A,A,,,N,A*51
$PGRME,3.4,M,4.8,M,5.9,M*29
$PGRMZ,146,f,3*18
$PGRMM,WGS 84*06
$HCHDG,,,,9.1,E*0F
$GPRTE,1,1,c,*37
$GPRMC,144805,A,5926.1071,N,02450.1350,E,0.0,215.4,270321,9.1,E,A*13
$GPRMB,A,,,,,,,,,,,,V,A*1C
$GPGGA,144805,5926.1071,N,02450.1350,E,1,12,0.7,45.0,M,17.0,M,,*76
$GPGSA,A,3,02,04,05,09,16,18,20,25,26,29,31,39,1.4,0.7,1.2*35
$GPGSV,3,1,12,02,12,050,45,04,08,318,16,05,33,086,45,09,10,350,19*70
$GPGSV,3,2,12,16,18,304,30,18,37,198,40,20,02,165,26,25,31,149,42*71
$GPGSV,3,3,12,26,44,292,38,29,77,101,46,31,32,239,35,39,14,136,31*71
$GPGLL,5926.1071,N,02450.1350,E,144805,A,A*40
$GPBOD,,T,,M,,*47
$GPBWC,144805,,,,,,T,,M,,N,,A*77
$GPVTG,215.4,T,206.3,M,0.0,N,0.0,K,A*26
$GPXTE,A,A,,,N,A*51
$PGRME,3.4,M,4.8,M,5.9,M*29
$PGRMZ,148,f,3*16
$PGRMM,WGS 84*06
$HCHDG,,,,9.1,E*0F
$GPRTE,1,1,c,*37
$GPRMC,144807,A,5926.1071,N,02450.1348,E,0.0,215.4,270321,9.1,E,A*18
$GPRMB,A,,,,,,,,,,,,V,A*1C
$GPGGA,144807,5926.1071,N,02450.1348,E,1,12,0.7,45.4,M,17.0,M,,*79
$GPGSA,A,3,02,04,05,09,16,18,20,25,26,29,31,39,1.4,0.7,1.2*35
$GPGSV,3,1,12,02,12,050,44,04,08,318,16,05,33,086,44,09,10,350,19*70
$GPGSV,3,2,12,16,18,304,30,18,37,198,40,20,02,165,25,25,31,149,41*71
$GPGSV,3,3,12,26,44,292,37,29,77,100,46,31,32,239,35,39,14,136,30*7E
$GPGLL,5926.1071,N,02450.1348,E,144807,A,A*4B
$GPBOD,,T,,M,,*47
$GPBWC,144807,,,,,,T,,M,,N,,A*75
$GPVTG,215.4,T,206.3,M,0.0,N,0.0,K,A*26
$GPXTE,A,A,,,N,A*51
$PGRME,3.4,M,4.8,M,5.9,M*29
$PGRMZ,149,f,3*17
$PGRMM,WGS 84*06
$HCHDG,,,,9.1,E*0F
$GPRTE,1,1,c,*37
$GPRMC,144809,A,5926.1070,N,02450.1346,E,0.0,215.4,270321,9.1,E,A*19
$GPRMB,A,,,,,,,,,,,,V,A*1C
$GPGGA,144809,5926.1070,N,02450.1346,E,1,12,0.7,45.8,M,17.0,M,,*74
$GPGSA,A,3,02,04,05,09,16,18,20,25,26,29,31,39,1.4,0.7,1.2*35
$GPGSV,3,1,12,02,12,050,44,04,08,318,18,05,33,086,44,09,10,350,19*7E
$GPGSV,3,2,12,16,18,304,30,18,37,198,40,20,02,165,25,25,31,149,41*71
$GPGSV,3,3,12,26,44,292,36,29,77,100,46,31,32,239,35,39,14,136,31*7E
$GPGLL,5926.1070,N,02450.1346,E,144809,A,A*4A
$GPBOD,,T,,M,,*47
$GPBWC,144809,,,,,,T,,M,,N,,A*7B
$GPVTG,215.4,T,206.3,M,0.0,N,0.0,K,A*26
$GPXTE,A,A,,,N,A*51
$PGRME,3.4,M,4.9,M,5.9,M*28
$PGRMZ,150,f,3*1F
$PGRMM,WGS 84*06
$HCHDG,,,,9.1,E*0F
$GPRTE,1,1,c,*37
$GPRMC,144811,A,5926.1070,N,02450.1345,E,0.0,215.4,270321,9.1,E,A*13
$GPRMB,A,,,,,,,,,,,,V,A*1C
$GPGGA,144811,5926.1070,N,02450.1345,E,1,12,0.7,45.8,M,17.0,M,,*7E
$GPGSA,A,3,02,04,05,09,16,18,20,25,26,29,31,39,1.4,0.7,1.2*35
$GPGSV,3,1,12,02,12,050,44,04,08,318,19,05,33,086,45,09,10,350,21*75
$GPGSV,3,2,12,16,18,304,30,18,37,198,41,20,02,165,25,25,31,149,42*73
$GPGSV,3,3,12,26,44,292,36,29,77,100,46,31,31,239,36,39,14,136,31*7E
$GPGLL,5926.1070,N,02450.1345,E,144811,A,A*40
$GPBOD,,T,,M,,*47
$GPBWC,144811,,,,,,T,,M,,N,,A*72
$GPVTG,215.4,T,206.3,M,0.0,N,0.0,K,A*26
$GPXTE,A,A,,,N,A*51
$PGRME,3.4,M,4.9,M,5.9,M*28
$PGRMZ,150,f,3*1F
$PGRMM,WGS 84*06
$HCHDG,,,,9.1,E*0F
$GPRTE,1,1,c,*37
$GPRMC,144813,A,5926.1071,N,02450.1345,E,0.0,215.4,270321,9.1,E,A*10
$GPRMB,A,,,,,,,,,,,,V,A*1C
$GPGGA,144813,5926.1071,N,02450.1345,E,1,12,0.7,45.9,M,17.0,M,,*7C
$GPGSA,A,3,02,04,05,09,16,18,20,25,26,29,31,39,1.4,0.7,1.2*35
$GPGSV,3,1,12,02,12,050,45,04,08,318,21,05,33,086,45,09,10,350,21*7F
$GPGSV,3,2,12,16,18,304,31,18,37,198,41,20,02,165,24,25,31,149,42*73
$GPGSV,3,3,12,26,44,292,36,29,77,100,46,31,31,239,37,39,14,136,32*7C
$GPGLL,5926.1071,N,02450.1345,E,144813,A,A*43
$GPBOD,,T,,M,,*47
$GPBWC,144813,,,,,,T,,M,,N,,A*70
$GPVTG,215.4,T,206.3,M,0.0,N,0.0,K,A*26
$GPXTE,A,A,,,N,A*51
$PGRME,3.4,M,4.9,M,5.9,M*28
$PGRMZ,151,f,3*1E
$PGRMM,WGS 84*06
$HCHDG,,,,9.1,E*0F
$GPRTE,1,1,c,*37
$GPRMC,144815,A,5926.1072,N,02450.1348,E,0.0,215.4,270321,9.1,E,A*18
$GPRMB,A,,,,,,,,,,,,V,A*1C
$GPGGA,144815,5926.1072,N,02450.1348,E,1,12,0.7,46.1,M,17.0,M,,*7F
$GPGSA,A,3,02,04,05,09,16,18,20,25,26,29,31,39,1.4,0.7,1.2*35
$GPGSV,3,1,12,02,12,050,45,04,08,318,23,05,33,086,45,09,10,350,21*7D
$GPGSV,3,2,12,16,18,304,31,18,37,198,41,20,02,165,24,25,31,149,42*73
$GPGSV,3,3,12,26,44,292,36,29,77,100,47,31,31,239,38,39,14,136,31*71
$GPGLL,5926.1072,N,02450.1348,E,144815,A,A*4B
$GPBOD,,T,,M,,*47
$GPBWC,144815,,,,,,T,,M,,N,,A*76
$GPVTG,215.4,T,206.3,M,0.0,N,0.0,K,A*26
$GPXTE,A,A,,,N,A*51
$PGRME,3.4,M,4.9,M,5.9,M*28
$PGRMZ,151,f,3*1E
$PGRMM,WGS 84*06
$HCHDG,,,,9.1,E*0F
$GPRTE,1,1,c,*37
$GPRMC,144817,A,5926.1072,N,02450.1350,E,0.0,215.4,270321,9.1,E,A*13
$GPRMB,A,,,,,,,,,,,,V,A*1C
$GPGGA,144817,5926.1072,N,02450.1350,E,1,12,0.7,46.3,M,17.0,M,,*76
$GPGSA,A,3,02,04,05,09,16,18,20,25,26,29,31,39,1.4,0.7,1.2*35
$GPGSV,3,1,12,02,12,050,45,04,08,318,23,05,33,086,45,09,10,350,19*76
$GPGSV,3,2,12,16,18,304,31,18,37,198,41,20,02,165,24,25,31,149,43*72
$GPGSV,3,3,12,26,44,292,35,29,77,100,47,31,31,239,38,39,14,136,31*72
$GPGLL,5926.1072,N,02450.1350,E,144817,A,A*40
$GPBOD,,T,,M,,*47
$GPBWC,144817,,,,,,T,,M,,N,,A*74
$GPVTG,215.4,T,206.3,M,0.0,N,0.0,K,A*26
$GPXTE,A,A,,,N,A*51
$PGRME,3.4,M,4.8,M,5.9,M*29
$PGRMZ,152,f,3*1D
$PGRMM,WGS 84*06
$HCHDG,,,,9.1,E*0F
$GPRTE,1,1,c,*37
$GPRMC,144819,A,5926.1072,N,02450.1353,E,0.0,215.4,270321,9.1,E,A*1E
$GPRMB,A,,,,,,,,,,,,V,A*1C
$GPGGA,144819,5926.1072,N,02450.1353,E,1,12,0.7,46.5,M,17.0,M,,*7D
$GPGSA,A,3,02,04,05,09,16,18,20,25,26,29,31,39,1.4,0.7,1.2*35
$GPGSV,3,1,12,02,12,050,45,04,08,318,24,05,33,086,45,09,10,350,17*7F
$GPGSV,3,2,12,16,18,304,32,18,37,198,41,20,02,165,24,25,31,149,43*71
$GPGSV,3,3,12,26,44,292,35,29,77,100,47,31,31,239,38,39,14,136,32*71
$GPGLL,5926.1072,N,02450.1353,E,144819,A,A*4D
$GPBOD,,T,,M,,*47
$GPBWC,144819,,,,,,T,,M,,N,,A*7A
$GPVTG,215.4,T,206.3,M,0.0,N,0.0,K,A*26
$GPXTE,A,A,,,N,A*51
$PGRME,3.4,M,4.8,M,5.9,M*29
$PGRMZ,153,f,3*1C
$PGRMM,WGS 84*06
$HCHDG,,,,9.1,E*0F
$GPRTE,1,1,c,*37
$GPRMC,144821,A,5926.1072,N,02450.1356,E,0.0,215.4,270321,9.1,E,A*10
$GPRMB,A,,,,,,,,,,,,V,A*1C
$GPGGA,144821,5926.1072,N,02450.1356,E,1,12,0.8,46.2,M,17.0,M,,*7B
$GPGSA,A,3,02,04,05,09,16,18,20,25,26,29,31,39,1.4,0.8,1.2*3A
$GPGSV,3,1,12,02,12,050,45,04,07,318,24,05,33,086,45,09,10,350,12*75
$GPGSV,3,2,12,16,18,304,32,18,37,198,41,20,02,165,24,25,31,149,43*71
$GPGSV,3,3,12,26,44,292,35,29,77,100,47,31,31,239,38,39,14,136,31*72
$GPGLL,5926.1072,N,02450.1356,E,144821,A,A*43
$GPBOD,,T,,M,,*47
$GPBWC,144821,,,,,,T,,M,,N,,A*71
$GPVTG,215.4,T,206.3,M,0.0,N,0.0,K,A*26
$GPXTE,A,A,,,N,A*51
$PGRME,3.4,M,4.8,M,5.9,M*29
$PGRMZ,152,f,3*1D
$PGRMM,WGS 84*06
$HCHDG,,,,9.1,E*0F
$GPRTE,1,1,c,*37
$GPRMC,144823,A,5926.1073,N,02450.1359,E,0.0,215.4,270321,9.1,E,A*1C
$GPRMB,A,,,,,,,,,,,,V,A*1C
$GPGGA,144823,5926.1073,N,02450.1359,E,1,12,0.8,46.1,M,17.0,M,,*74
$GPGSA,A,3,02,04,05,09,16,18,20,25,26,29,31,39,1.4,0.8,1.2*3A
$GPGSV,3,1,12,02,12,050,45,04,07,318,24,05,33,086,45,09,10,350,13*74
$GPGSV,3,2,12,16,18,304,32,18,37,198,40,20,02,165,24,25,31,149,43*70
$GPGSV,3,3,12,26,44,292,35,29,77,100,47,31,31,239,38,39,14,136,32*71
$GPGLL,5926.1073,N,02450.1359,E,144823,A,A*4F
$GPBOD,,T,,M,,*47
$GPBWC,144823,,,,,,T,,M,,N,,A*73
$GPVTG,215.4,T,206.3,M,0.0,N,0.0,K,A*26
$GPXTE,A,A,,,N,A*51
$PGRME,3.4,M,4.7,M,5.8,M*27
$PGRMZ,151,f,3*1E
$PGRMM,WGS 84*06
$HCHDG,,,,9.1,E*0F
$GPRTE,1,1,c,*37
$GPRMC,144825,A,5926.1074,N,02450.1361,E,0.0,215.4,270321,9.1,E,A*16
$GPRMB,A,,,,,,,,,,,,V,A*1C
$GPGGA,144825,5926.1074,N,02450.1361,E,1,12,0.8,46.1,M,17.0,M,,*7E
$GPGSA,A,3,02,04,05,09,16,18,20,25,26,29,31,39,1.4,0.8,1.2*3A
$GPGSV,3,1,12,02,12,050,45,04,07,318,25,05,33,086,45,09,10,350,13*75
$GPGSV,3,2,12,16,18,304,33,18,37,198,40,20,02,165,25,25,31,149,43*70
$GPGSV,3,3,12,26,44,292,35,29,77,100,47,31,31,239,37,39,14,136,32*7E
$GPGLL,5926.1074,N,02450.1361,E,144825,A,A*45
$GPBOD,,T,,M,,*47
$GPBWC,144825,,,,,,T,,M,,N,,A*75
$GPVTG,215.4,T,206.3,M,0.0,N,0.0,K,A*26
$GPXTE,A,A,,,N,A*51
$PGRME,3.4,M,4.7,M,5.8,M*27
$PGRMZ,151,f,3*1E
$PGRMM,WGS 84*06
$HCHDG,,,,9.1,E*0F
$GPRTE,1,1,c,*37
$GPRMC,144827,A,5926.1074,N,02450.1361,E,0.0,215.4,270321,9.1,E,A*14
$GPRMB,A,,,,,,,,,,,,V,A*1C
$GPGGA,144827,5926.1074,N,02450.1361,E,1,12,0.8,46.1,M,17.0,M,,*7C
$GPGSA,A,3,02,04,05,09,16,18,20,25,26,29,31,39,1.4,0.8,1.2*3A
$GPGSV,3,1,12,02,12,050,45,04,07,318,26,05,33,086,45,09,10,350,13*76
$GPGSV,3,2,12,16,18,304,33,18,37,198,40,20,02,165,25,25,31,149,43*70
$GPGSV,3,3,12,26,44,292,35,29,77,100,47,31,31,239,37,39,14,136,32*7E
$GPGLL,5926.1074,N,02450.1361,E,144827,A,A*47
$GPBOD,,T,,M,,*47
$GPBWC,144827,,,,,,T,,M,,N,,A*77
$GPVTG,215.4,T,206.3,M,0.0,N,0.0,K,A*26
$GPXTE,A,A,,,N,A*51
$PGRME,3.4,M,4.7,M,5.8,M*27
$PGRMZ,151,f,3*1E
$PGRMM,WGS 84*06
$HCHDG,,,,9.1,E*0F
$GPRTE,1,1,c,*37
$GPRMC,144829,A,5926.1073,N,02450.1360,E,0.0,215.4,270321,9.1,E,A*1C
$GPRMB,A,,,,,,,,,,,,V,A*1C
$GPGGA,144829,5926.1073,N,02450.1360,E,1,12,0.8,46.2,M,17.0,M,,*77
$GPGSA,A,3,02,04,05,09,16,18,20,25,26,29,31,39,1.4,0.8,1.2*3A
$GPGSV,3,1,12,02,12,050,45,04,07,318,26,05,33,086,45,09,10,350,13*76
$GPGSV,3,2,12,16,18,304,33,18,37,198,41,20,02,165,25,25,31,149,43*71
$GPGSV,3,3,12,26,44,292,35,29,77,100,48,31,31,239,37,39,14,136,31*72
$GPGLL,5926.1073,N,02450.1360,E,144829,A,A*4F
$GPBOD,,T,,M,,*47
$GPBWC,144829,,,,,,T,,M,,N,,A*79
$GPVTG,215.4,T,206.3,M,0.0,N,0.0,K,A*26
$GPXTE,A,A,,,N,A*51
$PGRME,3.4,M,4.6,M,5.8,M*26
$PGRMZ,152,f,3*1D
$PGRMM,WGS 84*06
$HCHDG,,,,9.1,E*0F
$GPRTE,1,1,c,*37
$GPRMC,144831,A,5926.1073,N,02450.1359,E,0.0,215.4,270321,9.1,E,A*1F
$GPRMB,A,,,,,,,,,,,,V,A*1C
$GPGGA,144831,5926.1073,N,02450.1359,E,1,12,0.8,45.9,M,17.0,M,,*7C
$GPGSA,A,3,02,04,05,09,16,18,20,25,26,29,31,39,1.4,0.8,1.2*3A
$GPGSV,3,1,12,02,12,050,45,04,07,318,28,05,33,086,45,09,10,350,13*78
$GPGSV,3,2,12,16,18,304,33,18,37,198,41,20,02,165,25,25,31,149,43*71
$GPGSV,3,3,12,26,44,292,36,29,77,100,47,31,31,239,37,39,14,136,32*7D
$GPGLL,5926.1073,N,02450.1359,E,144831,A,A*4C
$GPBOD,,T,,M,,*47
$GPBWC,144831,,,,,,T,,M,,N,,A*70
$GPVTG,215.4,T,206.3,M,0.0,N,0.0,K,A*26
$GPXTE,A,A,,,N,A*51
$PGRME,3.4,M,4.6,M,5.7,M*29
$PGRMZ,151,f,3*1E
$PGRMM,WGS 84*06
$HCHDG,,,,9.1,E*0F
$GPRTE,1,1,c,*37
$GPRMC,144833,A,5926.1073,N,02450.1360,E,0.0,215.4,270321,9.1,E,A*17
$GPRMB,A,,,,,,,,,,,,V,A*1C
$GPGGA,144833,5926.1073,N,02450.1360,E,1,12,0.8,45.6,M,17.0,M,,*7B
$GPGSA,A,3,02,04,05,09,16,18,20,25,26,29,31,39,1.4,0.8,1.2*3A
$GPGSV,3,1,12,02,12,050,44,04,07,318,29,05,33,086,45,09,10,350,14*7F
$GPGSV,3,2,12,16,18,304,33,18,37,198,41,20,02,165,26,25,31,149,44*75
$GPGSV,3,3,12,26,44,292,36,29,77,100,47,31,31,239,37,39,14,136,32*7D
$GPGLL,5926.1073,N,02450.1360,E,144833,A,A*44
$GPBOD,,T,,M,,*47
$GPBWC,144833,,,,,,T,,M,,N,,A*72
$GPVTG,215.4,T,206.3,M,0.0,N,0.0,K,A*26
$GPXTE,A,A,,,N,A*51
$PGRME,3.4,M,4.6,M,5.7,M*29
$PGRMZ,150,f,3*1F
$PGRMM,WGS 84*06
$HCHDG,,,,9.1,E*0F
$GPRTE,1,1,c,*37
$GPRMC,144835,A,5926.1073,N,02450.1361,E,0.1,276.3,270321,9.1,E,A*13
$GPRMB,A,,,,,,,,,,,,V,A*1C
$GPGGA,144835,5926.1073,N,02450.1361,E,1,12,0.7,45.5,M,17.0,M,,*70
$GPGSA,A,3,02,04,05,09,16,18,20,25,26,29,31,39,1.4,0.7,1.2*35
$GPGSV,3,1,12,02,12,050,44,04,07,318,30,05,33,086,45,09,10,350,15*76
$GPGSV,3,2,12,16,18,304,33,18,37,198,41,20,02,165,25,25,31,149,44*76
$GPGSV,3,3,12,26,44,292,36,29,77,100,47,31,31,239,37,39,14,136,32*7D
$GPGLL,5926.1073,N,02450.1361,E,144835,A,A*43
$GPBOD,,T,,M,,*47
$GPBWC,144835,,,,,,T,,M,,N,,A*74
$GPVTG,276.3,T,267.2,M,0.1,N,0.1,K,A*22
$GPXTE,A,A,,,N,A*51
$PGRME,3.4,M,4.6,M,5.7,M*29
$PGRMZ,149,f,3*17
$PGRMM,WGS 84*06
$HCHDG,,,,9.1,E*0F
$GPRTE,1,1,c,*37
$GPRMC,144838,A,5926.1072,N,02450.1364,E,0.0,276.3,270321,9.1,E,A*1B
$GPRMB,A,,,,,,,,,,,,V,A*1C
$GPGGA,144838,5926.1072,N,02450.1364,E,1,12,0.7,45.4,M,17.0,M,,*78
$GPGSA,A,3,02,04,05,09,16,18,20,25,26,29,31,39,1.4,0.7,1.2*35
$GPGSV,3,1,12,02,12,050,44,04,07,318,31,05,33,086,45,09,10,350,19*7B
$GPGSV,3,2,12,16,18,304,33,18,37,198,42,20,02,165,26,25,31,149,44*76
$GPGSV,3,3,12,26,44,292,36,29,77,100,48,31,31,239,37,39,14,136,32*72
$GPGLL,5926.1072,N,02450.1364,E,144838,A,A*4A
$GPBOD,,T,,M,,*47
$GPBWC,144838,,,,,,T,,M,,N,,A*79
$GPVTG,276.3,T,267.2,M,0.0,N,0.0,K,A*22
$GPXTE,A,A,,,N,A*51
$PGRME,3.3,M,4.6,M,5.7,M*2E
$PGRMZ,149,f,3*17
$PGRMM,WGS 84*06
$HCHDG,,,,9.1,E*0F
$GPRTE,1,1,c,*37
$GPRMC,144840,A,5926.1071,N,02450.1365,E,0.0,276.3,270321,9.1,E,A*16
$GPRMB,A,,,,,,,,,,,,V,A*1C
$GPGGA,144840,5926.1071,N,02450.1365,E,1,12,0.7,45.6,M,17.0,M,,*77
$GPGSA,A,3,02,04,05,09,16,18,20,25,26,29,31,39,1.4,0.7,1.2*35
$GPGSV,3,1,12,02,12,050,45,04,07,318,31,05,33,086,44,09,10,350,19*7B
$GPGSV,3,2,12,16,18,304,33,18,37,198,42,20,02,165,27,25,31,149,44*77
$GPGSV,3,3,12,26,44,292,36,29,77,100,48,31,31,239,37,39,14,136,32*72
$GPGLL,5926.1071,N,02450.1365,E,144840,A,A*47
$GPBOD,,T,,M,,*47
$GPBWC,144840,,,,,,T,,M,,N,,A*76
$GPVTG,276.3,T,267.2,M,0.0,N,0.0,K,A*22
$GPXTE,A,A,,,N,A*51
$PGRME,3.3,M,4.6,M,5.6,M*2F
$PGRMZ,150,f,3*1F
$PGRMM,WGS 84*06
$HCHDG,,,,9.1,E*0F
$GPRTE,1,1,c,*37
$GPRMC,144842,A,5926.1072,N,02450.1366,E,0.0,276.3,270321,9.1,E,A*14
$GPRMB,A,,,,,,,,,,,,V,A*1C
$GPGGA,144842,5926.1072,N,02450.1366,E,1,12,0.7,45.4,M,17.0,M,,*77
$GPGSA,A,3,02,04,05,09,16,18,20,25,26,29,31,39,1.4,0.7,1.2*35
$GPGSV,3,1,12,02,12,050,45,04,07,318,31,05,33,086,45,09,10,350,21*71
$GPGSV,3,2,12,16,18,304,33,18,37,198,42,20,02,165,27,25,31,149,44*77
$GPGSV,3,3,12,26,44,292,36,29,77,100,48,31,31,239,37,39,14,136,32*72
$GPGLL,5926.1072,N,02450.1366,E,144842,A,A*45
$GPBOD,,T,,M,,*47
$GPBWC,144842,,,,,,T,,M,,N,,A*74
$GPVTG,276.3,T,267.2,M,0.0,N,0.0,K,A*22
$GPXTE,A,A,,,N,A*51
$PGRME,3.3,M,4.5,M,5.6,M*2C
$PGRMZ,149,f,3*17
$PGRMM,WGS 84*06
$HCHDG,,,,9.1,E*0F
$GPRTE,1,1,c,*37
$GPRMC,144844,A,5926.1072,N,02450.1367,E,0.0,276.3,270321,9.1,E,A*13
$GPRMB,A,,,,,,,,,,,,V,A*1C
$GPGGA,144844,5926.1072,N,02450.1367,E,1,12,0.7,45.3,M,17.0,M,,*77
$GPGSA,A,3,02,04,05,09,16,18,20,25,26,29,31,39,1.4,0.7,1.2*35
$GPGSV,3,1,12,02,12,050,45,04,07,318,31,05,33,086,45,09,10,350,23*73
$GPGSV,3,2,12,16,18,304,33,18,37,198,42,20,02,165,28,25,31,149,44*78
$GPGSV,3,3,12,26,44,292,36,29,77,100,47,31,31,239,36,39,14,136,32*7C
$GPGLL,5926.1072,N,02450.1367,E,144844,A,A*42
$GPBOD,,T,,M,,*47
$GPBWC,144844,,,,,,T,,M,,N,,A*72
$GPVTG,276.3,T,267.2,M,0.0,N,0.0,K,A*22
$GPXTE,A,A,,,N,A*51
$PGRME,3.3,M,4.5,M,5.6,M*2C
$PGRMZ,149,f,3*17
$PGRMM,WGS 84*06
$HCHDG,,,,9.1,E*0F
$GPRTE,1,1,c,*37
$GPRMC,144846,A,5926.1073,N,02450.1368,E,0.0,276.3,270321,9.1,E,A*1F
$GPRMB,A,,,,,,,,,,,,V,A*1C
$GPGGA,144846,5926.1073,N,02450.1368,E,1,12,0.7,45.2,M,17.0,M,,*7A
$GPGSA,A,3,02,04,05,09,16,18,20,25,26,29,31,39,1.4,0.7,1.2*35
$GPGSV,3,1,12,02,12,050,45,04,07,318,31,05,33,086,32,09,10,350,25*75
$GPGSV,3,2,12,16,19,304,33,18,37,198,42,20,02,165,28,25,31,149,44*79
$GPGSV,3,3,12,26,44,292,36,29,77,100,48,31,31,239,36,39,14,136,33*72
$GPGLL,5926.1073,N,02450.1368,E,144846,A,A*4E
$GPBOD,,T,,M,,*47
$GPBWC,144846,,,,,,T,,M,,N,,A*70
$GPVTG,276.3,T,267.2,M,0.0,N,0.0,K,A*22
$GPXTE,A,A,,,N,A*51
$PGRME,3.3,M,4.5,M,5.6,M*2C
$PGRMZ,148,f,3*16
$PGRMM,WGS 84*06
$HCHDG,,,,9.1,E*0F
$GPRTE,1,1,c,*37
$GPRMC,144848,A,5926.1072,N,02450.1365,E,0.0,276.3,270321,9.1,E,A*1D
$GPRMB,A,,,,,,,,,,,,V,A*1C
$GPGGA,144848,5926.1072,N,02450.1365,E,1,12,0.7,45.1,M,17.0,M,,*7B
$GPGSA,A,3,02,04,05,09,16,18,20,25,26,29,31,39,1.4,0.7,1.2*35
$GPGSV,3,1,12,02,12,050,45,04,07,318,31,05,33,086,24,09,10,350,28*7F
$GPGSV,3,2,12,16,19,304,31,18,37,198,43,20,02,165,28,25,31,149,45*7B
$GPGSV,3,3,12,26,44,292,36,29,77,100,47,31,31,239,35,39,14,136,34*79
$GPGLL,5926.1072,N,02450.1365,E,144848,A,A*4C
$GPBOD,,T,,M,,*47
$GPBWC,144848,,,,,,T,,M,,N,,A*7E
$GPVTG,276.3,T,267.2,M,0.0,N,0.0,K,A*22
$GPXTE,A,A,,,N,A*51
$PGRME,3.3,M,4.5,M,5.6,M*2C
$PGRMZ,148,f,3*16
$PGRMM,WGS 84*06
$HCHDG,,,,9.1,E*0F
$GPRTE,1,1,c,*37
$GPRMC,144850,A,5926.1070,N,02450.1365,E,0.0,276.3,270321,9.1,E,A*16
$GPRMB,A,,,,,,,,,,,,V,A*1C
$GPGGA,144850,5926.1070,N,02450.1365,E,1,12,0.8,45.2,M,17.0,M,,*7C
$GPGSA,A,3,02,04,05,09,16,18,20,25,26,29,31,39,1.4,0.8,1.2*3A
$GPGSV,3,1,12,02,12,050,45,04,07,318,32,05,33,086,00,09,10,350,29*7B
$GPGSV,3,2,12,16,19,304,31,18,37,198,44,20,02,165,29,25,31,149,45*7D
$GPGSV,3,3,12,26,44,292,36,29,77,100,47,31,31,239,35,39,14,136,33*7E
$GPGLL,5926.1070,N,02450.1365,E,144850,A,A*47
$GPBOD,,T,,M,,*47
$GPBWC,144850,,,,,,T,,M,,N,,A*77
$GPVTG,276.3,T,267.2,M,0.0,N,0.0,K,A*22
$GPXTE,A,A,,,N,A*51
$PGRME,3.3,M,4.5,M,5.6,M*2C
$PGRMZ,148,f,3*16
$PGRMM,WGS 84*06
$HCHDG,,,,9.1,E*0F
$GPRTE,1,1,c,*37
$GPRMC,144852,A,5926.1069,N,02450.1365,E,0.0,276.3,270321,9.1,E,A*1C
$GPRMB,A,,,,,,,,,,,,V,A*1C
$GPGGA,144852,5926.1069,N,02450.1365,E,1,12,0.8,45.1,M,17.0,M,,*75
$GPGSA,A,3,02,04,05,09,16,18,20,25,26,29,31,39,1.4,0.8,1.2*3A
$GPGSV,3,1,12,02,12,050,45,04,07,318,32,05,33,086,00,09,10,350,29*7B
$GPGSV,3,2,12,16,19,304,33,18,37,198,43,20,02,165,29,25,31,149,45*78
$GPGSV,3,3,12,26,44,292,37,29,77,100,47,31,31,239,35,39,14,136,33*7F
$GPGLL,5926.1069,N,02450.1365,E,144852,A,A*4D
$GPBOD,,T,,M,,*47
$GPBWC,144852,,,,,,T,,M,,N,,A*75
$GPVTG,276.3,T,267.2,M,0.0,N,0.0,K,A*22
$GPXTE,A,A,,,N,A*51
$PGRME,3.3,M,4.5,M,5.6,M*2C
$PGRMZ,148,f,3*16
$PGRMM,WGS 84*06
$HCHDG,,,,9.1,E*0F
$GPRTE,1,1,c,*37
$GPRMC,144854,A,5926.1069,N,02450.1364,E,0.0,276.3,270321,9.1,E,A*1B
$GPRMB,A,,,,,,,,,,,,V,A*1C
$GPGGA,144854,5926.1069,N,02450.1364,E,1,12,0.7,45.0,M,17.0,M,,*7C
$GPGSA,A,3,02,04,05,09,16,18,20,25,26,29,31,39,1.4,0.7,1.2*35
$GPGSV,3,1,12,02,12,050,45,04,07,318,32,05,33,086,39,09,10,350,28*70
$GPGSV,3,2,12,16,19,304,33,18,37,198,42,20,03,164,30,25,31,149,45*71
$GPGSV,3,3,12,26,44,292,37,29,77,100,47,31,31,239,34,39,14,136,32*7F
$GPGLL,5926.1069,N,02450.1364,E,144854,A,A*4A
$GPBOD,,T,,M,,*47
$GPBWC,144854,,,,,,T,,M,,N,,A*73
$GPVTG,276.3,T,267.2,M,0.0,N,0.0,K,A*22
$GPXTE,A,A,,,N,A*51
$PGRME,3.3,M,4.5,M,5.6,M*2C
$PGRMZ,148,f,3*16
$PGRMM,WGS 84*06
$HCHDG,,,,9.1,E*0F
$GPRTE,1,1,c,*37
$GPRMC,144856,A,5926.1070,N,02450.1365,E,0.0,276.3,270321,9.1,E,A*10
$GPRMB,A,,,,,,,,,,,,V,A*1C
$GPGGA,144856,5926.1070,N,02450.1365,E,1,12,0.7,45.0,M,17.0,M,,*77
$GPGSA,A,3,02,04,05,09,16,18,20,25,26,29,31,39,1.4,0.7,1.2*35
$GPGSV,3,1,12,02,12,050,45,04,07,318,32,05,33,086,44,09,10,350,28*7A
$GPGSV,3,2,12,16,19,304,33,18,37,198,42,20,03,164,30,25,31,149,45*71
$GPGSV,3,3,12,26,44,292,37,29,77,100,47,31,31,239,34,39,14,136,32*7F
$GPGLL,5926.1070,N,02450.1365,E,144856,A,A*41
$GPBOD,,T,,M,,*47
$GPBWC,144856,,,,,,T,,M,,N,,A*71
$GPVTG,276.3,T,267.2,M,0.0,N,0.0,K,A*22
$GPXTE,A,A,,,N,A*51
$PGRME,3.3,M,4.5,M,5.6,M*2C
$PGRMZ,148,f,3*16
$PGRMM,WGS 84*06
$HCHDG,,,,9.1,E*0F
$GPRTE,1,1,c,*37
$GPRMC,144858,A,5926.1069,N,02450.1364,E,0.0,276.3,270321,9.1,E,A*17
$GPRMB,A,,,,,,,,,,,,V,A*1C
$GPGGA,144858,5926.1069,N,02450.1364,E,1,12,0.7,45.2,M,17.0,M,,*72
$GPGSA,A,3,02,04,05,09,16,18,20,25,26,29,31,39,1.4,0.7,1.2*35
$GPGSV,3,1,12,02,12,050,44,04,07,318,31,05,33,086,45,09,10,350,27*76
$GPGSV,3,2,12,16,19,304,33,18,37,198,41,20,03,164,30,25,31,149,45*72
$GPGSV,3,3,12,26,44,292,37,29,77,100,47,31,31,239,33,39,14,136,32*78
$GPGLL,5926.1069,N,02450.1364,E,144858,A,A*46
$GPBOD,,T,,M,,*47
$GPBWC,144858,,,,,,T,,M,,N,,A*7F
$GPVTG,276.3,T,267.2,M,0.0,N,0.0,K,A*22
$GPXTE,A,A,,,N,A*51
$PGRME,3.3,M,4.5,M,5.6,M*2C
$PGRMZ,148,f,3*16
$PGRMM,WGS 84*06
$HCHDG,,,,9.1,E*0F
$GPRTE,1,1,c,*37
$GPRMC,144901,A,5926.1070,N,02450.1358,E,0.0,276.3,270321,9.1,E,A*1D
$GPRMB,A,,,,,,,,,,,,V,A*1C
$GPGGA,144901,5926.1070,N,02450.1358,E,1,12,0.7,45.5,M,17.0,M,,*7F
$GPGSA,A,3,02,04,05,09,16,18,20,25,26,29,31,39,1.4,0.7,1.2*35
$GPGSV,3,1,12,02,12,050,44,04,07,318,30,05,33,086,46,09,10,350,27*74
$GPGSV,3,2,12,16,19,304,34,18,37,198,41,20,03,164,31,25,31,149,45*74
$GPGSV,3,3,12,26,44,292,37,29,77,100,47,31,31,239,32,39,14,136,32*79
$GPGLL,5926.1070,N,02450.1358,E,144901,A,A*4C
$GPBOD,,T,,M,,*47
$GPBWC,144901,,,,,,T,,M,,N,,A*72
$GPVTG,276.3,T,267.2,M,0.0,N,0.0,K,A*22
$GPXTE,A,A,,,N,A*51
$PGRME,3.2,M,4.5,M,5.5,M*2E
$PGRMZ,149,f,3*17
$PGRMM,WGS 84*06
$HCHDG,,,,9.1,E*0F
$GPRTE,1,1,c,*37
$GPRMC,144903,A,5926.1071,N,02450.1354,E,0.0,276.3,270321,9.1,E,A*12
$GPRMB,A,,,,,,,,,,,,V,A*1C
$GPGGA,144903,5926.1071,N,02450.1354,E,1,12,0.7,45.8,M,17.0,M,,*7D
$GPGSA,A,3,02,04,05,09,16,18,20,25,26,29,31,39,1.4,0.7,1.2*35
$GPGSV,3,1,12,02,12,050,45,04,07,318,29,05,33,086,46,09,10,350,29*73
$GPGSV,3,2,12,16,19,304,33,18,37,198,41,20,03,164,31,25,30,149,45*72
$GPGSV,3,3,12,26,44,292,37,29,77,100,47,31,31,239,32,39,14,136,32*79
$GPGLL,5926.1071,N,02450.1354,E,144903,A,A*43
$GPBOD,,T,,M,,*47
$GPBWC,144903,,,,,,T,,M,,N,,A*70
$GPVTG,276.3,T,267.2,M,0.0,N,0.0,K,A*22
$GPXTE,A,A,,,N,A*51
$PGRME,3.2,M,4.5,M,5.5,M*2E
$PGRMZ,150,f,3*1F
$PGRMM,WGS 84*06
$HCHDG,,,,9.1,E*0F
$GPRTE,1,1,c,*37
$GPRMC,144905,A,5926.1072,N,02450.1352,E,0.1,271.9,270321,9.1,E,A*1D
$GPRMB,A,,,,,,,,,,,,V,A*1C
$GPGGA,144905,5926.1072,N,02450.1352,E,1,12,0.7,45.5,M,17.0,M,,*73
$GPGSA,A,3,02,04,05,09,16,18,20,25,26,29,31,39,1.4,0.7,1.2*35
$GPGSV,3,1,12,02,12,050,45,04,07,318,28,05,33,086,46,09,10,350,30*7A
$GPGSV,3,2,12,16,19,304,33,18,37,198,41,20,03,164,31,25,30,149,45*72
$GPGSV,3,3,12,26,45,292,37,29,77,100,47,31,31,239,31,39,14,136,32*7B
$GPGLL,5926.1072,N,02450.1352,E,144905,A,A*40
$GPBOD,,T,,M,,*47
$GPBWC,144905,,,,,,T,,M,,N,,A*76
$GPVTG,271.9,T,262.8,M,0.1,N,0.1,K,A*20
$GPXTE,A,A,,,N,A*51
$PGRME,3.2,M,4.5,M,5.5,M*2E
$PGRMZ,149,f,3*17
$PGRMM,WGS 84*06
$HCHDG,,,,9.1,E*0F
$GPRTE,1,1,c,*37
$GPRMC,144907,A,5926.1072,N,02450.1352,E,0.0,271.9,270321,9.1,E,A*1E
$GPRMB,A,,,,,,,,,,,,V,A*1C
$GPGGA,144907,5926.1072,N,02450.1352,E,1,12,0.7,45.2,M,17.0,M,,*76
$GPGSA,A,3,02,04,05,09,16,18,20,25,26,29,31,39,1.4,0.7,1.2*35
$GPGSV,3,1,12,02,12,050,45,04,07,318,28,05,33,086,46,09,10,350,30*7A
$GPGSV,3,2,12,16,19,304,33,18,37,198,41,20,03,164,31,25,30,149,45*72
$GPGSV,3,3,12,26,45,292,36,29,77,100,47,31,31,239,31,39,14,136,32*7A
$GPGLL,5926.1072,N,02450.1352,E,144907,A,A*42
$GPBOD,,T,,M,,*47
$GPBWC,144907,,,,,,T,,M,,N,,A*74
$GPVTG,271.9,T,262.8,M,0.0,N,0.0,K,A*20
$GPXTE,A,A,,,N,A*51
$PGRME,3.2,M,4.5,M,5.5,M*2E
$PGRMZ,148,f,3*16
$PGRMM,WGS 84*06
$HCHDG,,,,9.1,E*0F
$GPRTE,1,1,c,*37
$GPRMC,144909,A,5926.1072,N,02450.1354,E,0.0,271.9,270321,9.1,E,A*16
$GPRMB,A,,,,,,,,,,,,V,A*1C
$GPGGA,144909,5926.1072,N,02450.1354,E,1,12,0.7,45.3,M,17.0,M,,*7F
$GPGSA,A,3,02,04,05,09,16,18,20,25,26,29,31,39,1.4,0.7,1.2*35
$GPGSV,3,1,12,02,12,050,45,04,07,318,28,05,33,086,46,09,10,350,30*7A
$GPGSV,3,2,12,16,19,304,33,18,37,198,41,20,03,164,31,25,30,149,45*72
$GPGSV,3,3,12,26,45,292,36,29,77,100,47,31,31,239,30,39,14,136,32*7B
$GPGLL,5926.1072,N,02450.1354,E,144909,A,A*4A
$GPBOD,,T,,M,,*47
$GPBWC,144909,,,,,,T,,M,,N,,A*7A
$GPVTG,271.9,T,262.8,M,0.0,N,0.0,K,A*20
$GPXTE,A,A,,,N,A*51
$PGRME,3.2,M,4.5,M,5.5,M*2E
$PGRMZ,148,f,3*16
$PGRMM,WGS 84*06
$HCHDG,,,,9.1,E*0F
$GPRTE,1,1,c,*37
$GPRMC,144911,A,5926.1073,N,02450.1353,E,0.0,271.9,270321,9.1,E,A*19
$GPRMB,A,,,,,,,,,,,,V,A*1C
$GPGGA,144911,5926.1073,N,02450.1353,E,1,12,0.7,45.5,M,17.0,M,,*76
$GPGSA,A,3,02,04,05,09,16,18,20,25,26,29,31,39,1.4,0.7,1.2*35
$GPGSV,3,1,12,02,12,050,45,04,07,318,28,05,33,086,46,09,10,350,29*72
$GPGSV,3,2,12,16,19,304,33,18,37,198,40,20,03,164,31,25,30,149,45*73
$GPGSV,3,3,12,26,45,292,36,29,76,100,47,31,31,239,29,39,14,136,31*71
$GPGLL,5926.1073,N,02450.1353,E,144911,A,A*45
$GPBOD,,T,,M,,*47
$GPBWC,144911,,,,,,T,,M,,N,,A*73
$GPVTG,271.9,T,262.8,M,0.0,N,0.0,K,A*20
$GPXTE,A,A,,,N,A*51
$PGRME,3.2,M,4.5,M,5.5,M*2E
$PGRMZ,149,f,3*17
$PGRMM,WGS 84*06
$HCHDG,,,,9.1,E*0F
$GPRTE,1,1,c,*37
$GPRMC,144913,A,5926.1074,N,02450.1349,E,0.0,271.9,270321,9.1,E,A*17
$GPRMB,A,,,,,,,,,,,,V,A*1C
$GPGGA,144913,5926.1074,N,02450.1349,E,1,12,0.7,45.7,M,17.0,M,,*7A
$GPGSA,A,3,02,04,05,09,16,18,20,25,26,29,31,39,1.4,0.7,1.2*35
$GPGSV,3,1,12,02,12,050,45,04,07,318,28,05,33,086,46,09,10,350,29*72
$GPGSV,3,2,12,16,19,304,34,18,37,198,40,20,03,164,31,25,30,149,45*74
$GPGSV,3,3,12,26,45,292,36,29,76,100,47,31,31,239,27,39,14,136,32*7C
$GPGLL,5926.1074,N,02450.1349,E,144913,A,A*4B
$GPBOD,,T,,M,,*47
$GPBWC,144913,,,,,,T,,M,,N,,A*71
$GPVTG,271.9,T,262.8,M,0.0,N,0.0,K,A*20
$GPXTE,A,A,,,N,A*51
$PGRME,3.2,M,4.5,M,5.5,M*2E
$PGRMZ,150,f,3*1F
$PGRMM,WGS 84*06
$HCHDG,,,,9.1,E*0F
$GPRTE,1,1,c,*37
$GPRMC,144915,A,5926.1074,N,02450.1347,E,0.0,271.9,270321,9.1,E,A*1F
$GPRMB,A,,,,,,,,,,,,V,A*1C
$GPGGA,144915,5926.1074,N,02450.1347,E,1,12,0.7,45.5,M,17.0,M,,*70
$GPGSA,A,3,02,04,05,09,16,18,20,25,26,29,31,39,1.4,0.7,1.2*35
$GPGSV,3,1,12,02,12,050,45,04,07,318,27,05,33,086,46,09,10,350,29*7D
$GPGSV,3,2,12,16,19,304,34,18,37,198,39,20,03,164,31,25,30,149,45*7A
$GPGSV,3,3,12,26,45,292,36,29,76,100,48,31,31,239,26,39,14,136,31*71
$GPGLL,5926.1074,N,02450.1347,E,144915,A,A*43
$GPBOD,,T,,M,,*47
$GPBWC,144915,,,,,,T,,M,,N,,A*77
$GPVTG,271.9,T,262.8,M,0.0,N,0.0,K,A*20
$GPXTE,A,A,,,N,A*51
$PGRME,3.2,M,4.5,M,5.5,M*2E
$PGRMZ,149,f,3*17
$PGRMM,WGS 84*06
$HCHDG,,,,9.1,E*0F
$GPRTE,1,1,c,*37
$GPRMC,144917,A,5926.1074,N,02450.1348,E,0.0,271.9,270321,9.1,E,A*12
$GPRMB,A,,,,,,,,,,,,V,A*1C
$GPGGA,144917,5926.1074,N,02450.1348,E,1,12,0.7,45.5,M,17.0,M,,*7D
$GPGSA,A,3,02,04,05,09,16,18,20,25,26,29,31,39,1.4,0.7,1.2*35
$GPGSV,3,1,12,02,12,050,45,04,07,318,27,05,33,086,46,09,10,350,28*7C
$GPGSV,3,2,12,16,19,304,34,18,37,198,40,20,03,164,32,25,30,149,45*77
$GPGSV,3,3,12,26,45,292,35,29,76,100,48,31,31,239,24,39,14,136,31*70
$GPGLL,5926.1074,N,02450.1348,E,144917,A,A*4E
$GPBOD,,T,,M,,*47
$GPBWC,144917,,,,,,T,,M,,N,,A*75
$GPVTG,271.9,T,262.8,M,0.0,N,0.0,K,A*20
$GPXTE,A,A,,,N,A*51
$PGRME,3.2,M,4.5,M,5.5,M*2E
$PGRMZ,149,f,3*17
$PGRMM,WGS 84*06
$HCHDG,,,,9.1,E*0F
$GPRTE,1,1,c,*37
$GPRMC,144919,A,5926.1073,N,02450.1347,E,0.0,271.9,270321,9.1,E,A*14
$GPRMB,A,,,,,,,,,,,,V,A*1C
$GPGGA,144919,5926.1073,N,02450.1347,E,1,12,0.7,45.5,M,17.0,M,,*7B
$GPGSA,A,3,02,04,05,09,16,18,20,25,26,29,31,39,1.4,0.7,1.2*35
$GPGSV,3,1,12,02,12,050,45,04,07,318,26,05,33,086,46,09,10,350,27*72
$GPGSV,3,2,12,16,19,304,34,18,37,198,40,20,03,164,31,25,30,149,45*74
$GPGSV,3,3,12,26,45,292,35,29,76,100,47,31,31,239,24,39,14,136,32*7C
$GPGLL,5926.1073,N,02450.1347,E,144919,A,A*48
$GPBOD,,T,,M,,*47
$GPBWC,144919,,,,,,T,,M,,N,,A*7B
$GPVTG,271.9,T,262.8,M,0.0,N,0.0,K,A*20
$GPXTE,A,A,,,N,A*51
$PGRME,3.2,M,4.5,M,5.5,M*2E
$PGRMZ,149,f,3*17
$PGRMM,WGS 84*06
$HCHDG,,,,9.1,E*0F
$GPRTE,1,1,c,*37
$GPRMC,144921,A,5926.1072,N,02450.1352,E,0.0,271.9,270321,9.1,E,A*1A
$GPRMB,A,,,,,,,,,,,,V,A*1C
$GPGGA,144921,5926.1072,N,02450.1352,E,1,12,0.7,45.6,M,17.0,M,,*76
$GPGSA,A,3,02,04,05,09,16,18,20,25,26,29,31,39,1.4,0.7,1.2*35
$GPGSV,3,1,12,02,12,050,45,04,07,318,25,05,33,086,46,09,10,350,26*70
$GPGSV,3,2,12,16,19,304,35,18,37,198,40,20,03,164,31,25,30,149,44*74
$GPGSV,3,3,12,26,45,292,35,29,76,100,47,31,31,239,24,39,14,136,31*7F
$GPGLL,5926.1072,N,02450.1352,E,144921,A,A*46
$GPBOD,,T,,M,,*47
$GPBWC,144921,,,,,,T,,M,,N,,A*70
$GPVTG,271.9,T,262.8,M,0.0,N,0.0,K,A*20
$GPXTE,A,A,,,N,A*51
$PGRME,3.2,M,4.5,M,5.5,M*2E
$PGRMZ,150,f,3*1F
$PGRMM,WGS 84*06
$HCHDG,,,,9.1,E*0F
$GPRTE,1,1,c,*37
$GPRMC,144924,A,5926.1071,N,02450.1356,E,0.0,271.9,270321,9.1,E,A*18
$GPRMB,A,,,,,,,,,,,,V,A*1C
$GPGGA,144924,5926.1071,N,02450.1356,E,1,12,0.7,45.7,M,17.0,M,,*75
$GPGSA,A,3,02,04,05,09,16,18,20,25,26,29,31,39,1.4,0.7,1.2*35
$GPGSV,3,1,12,02,12,050,45,04,07,318,24,05,33,086,46,09,10,350,24*73
$GPGSV,3,2,12,16,19,304,35,18,37,198,40,20,03,164,31,25,30,149,45*75
$GPGSV,3,3,12,26,45,292,35,29,76,100,47,31,31,239,25,39,14,136,32*7D
$GPGLL,5926.1071,N,02450.1356,E,144924,A,A*44
$GPBOD,,T,,M,,*47
$GPBWC,144924,,,,,,T,,M,,N,,A*75
$GPVTG,271.9,T,262.8,M,0.0,N,0.0,K,A*20
$GPXTE,A,A,,,N,A*51
$PGRME,3.2,M,4.5,M,5.5,M*2E
$PGRMZ,150,f,3*1F
$PGRMM,WGS 84*06
$HCHDG,,,,9.1,E*0F
$GPRTE,1,1,c,*37
$GPRMC,144926,A,5926.1070,N,02450.1360,E,0.0,271.9,270321,9.1,E,A*1E
$GPRMB,A,,,,,,,,,,,,V,A*1C
$GPGGA,144926,5926.1070,N,02450.1360,E,1,12,0.7,45.5,M,17.0,M,,*71
$GPGSA,A,3,02,04,05,09,16,18,20,25,26,29,31,39,1.4,0.7,1.2*35
$GPGSV,3,1,12,02,12,050,45,04,07,318,24,05,33,086,45,09,10,350,23*77
$GPGSV,3,2,12,16,19,304,35,18,37,198,40,20,03,164,30,25,30,149,44*75
$GPGSV,3,3,12,26,45,292,35,29,76,100,47,31,31,239,26,39,14,136,31*7D
$GPGLL,5926.1070,N,02450.1360,E,144926,A,A*42
$GPBOD,,T,,M,,*47
$GPBWC,144926,,,,,,T,,M,,N,,A*77
$GPVTG,271.9,T,262.8,M,0.0,N,0.0,K,A*20
$GPXTE,A,A,,,N,A*51
$PGRME,3.2,M,4.5,M,5.5,M*2E
$PGRMZ,149,f,3*17
$PGRMM,WGS 84*06
$HCHDG,,,,9.1,E*0F
$GPRTE,1,1,c,*37
$GPRMC,144928,A,5926.1069,N,02450.1363,E,0.0,271.9,270321,9.1,E,A*1B
$GPRMB,A,,,,,,,,,,,,V,A*1C
$GPGGA,144928,5926.1069,N,02450.1363,E,1,12,0.7,45.6,M,17.0,M,,*77
$GPGSA,A,3,02,04,05,09,16,18,20,25,26,29,31,39,1.4,0.7,1.2*35
$GPGSV,3,1,12,02,12,050,44,04,07,318,24,05,33,085,45,09,10,350,22*74
$GPGSV,3,2,12,16,19,304,34,18,37,198,40,20,03,164,30,25,30,149,43*73
$GPGSV,3,3,12,26,45,292,35,29,76,100,46,31,31,239,27,39,14,136,30*7C
$GPGLL,5926.1069,N,02450.1363,E,144928,A,A*47
$GPBOD,,T,,M,,*47
$GPBWC,144928,,,,,,T,,M,,N,,A*79
$GPVTG,271.9,T,262.8,M,0.0,N,0.0,K,A*20
$GPXTE,A,A,,,N,A*51
$PGRME,3.3,M,4.5,M,5.6,M*2C
$PGRMZ,150,f,3*1F
$PGRMM,WGS 84*06
$HCHDG,,,,9.1,E*0F
$GPRTE,1,1,c,*37
$GPRMC,144930,A,5926.1068,N,02450.1361,E,0.1,273.7,270321,9.1,E,A*1C
$GPRMB,A,,,,,,,,,,,,V,A*1C
$GPGGA,144930,5926.1068,N,02450.1361,E,1,12,0.8,45.9,M,17.0,M,,*7D
$GPGSA,A,3,02,04,05,09,16,18,20,25,26,29,31,39,1.4,0.8,1.2*3A
$GPGSV,3,1,12,02,12,050,44,04,07,318,00,05,33,085,45,09,10,350,22*72
$GPGSV,3,2,12,16,19,304,34,18,37,198,40,20,03,164,30,25,30,149,44*74
$GPGSV,3,3,12,26,45,292,36,29,76,100,46,31,31,239,27,39,14,136,32*7D
$GPGLL,5926.1068,N,02450.1361,E,144930,A,A*4D
$GPBOD,,T,,M,,*47
$GPBWC,144930,,,,,,T,,M,,N,,A*70
$GPVTG,273.7,T,264.6,M,0.1,N,0.2,K,A*27
$GPXTE,A,A,,,N,A*51
$PGRME,3.3,M,4.5,M,5.6,M*2C
$PGRMZ,151,f,3*1E
$PGRMM,WGS 84*06
$HCHDG,,,,9.1,E*0F
$GPRTE,1,1,c,*37
$GPRMC,144932,A,5926.1069,N,02450.1361,E,0.0,273.7,270321,9.1,E,A*1E
$GPRMB,A,,,,,,,,,,,,V,A*1C
$GPGGA,144932,5926.1069,N,02450.1361,E,1,12,0.8,46.4,M,17.0,M,,*70
$GPGSA,A,3,02,04,05,09,16,18,20,25,26,29,31,39,1.4,0.8,1.2*3A
$GPGSV,3,1,12,02,12,050,45,04,07,318,00,05,33,085,46,09,10,350,22*70
$GPGSV,3,2,12,16,19,304,35,18,37,198,40,20,03,164,29,25,30,149,44*7D
$GPGSV,3,3,12,26,45,292,36,29,76,100,47,31,31,239,27,39,14,136,31*7F
$GPGLL,5926.1069,N,02450.1361,E,144932,A,A*4E
$GPBOD,,T,,M,,*47
$GPBWC,144932,,,,,,T,,M,,N,,A*72
$GPVTG,273.7,T,264.6,M,0.0,N,0.0,K,A*24
$GPXTE,A,A,,,N,A*51
$PGRME,3.3,M,4.6,M,5.6,M*2F
$PGRMZ,152,f,3*1D
$PGRMM,WGS 84*06
$HCHDG,,,,9.1,E*0F
$GPRTE,1,1,c,*37
$GPRMC,144934,A,5926.1069,N,02450.1360,E,0.0,273.7,270321,9.1,E,A*19
$GPRMB,A,,,,,,,,,,,,V,A*1C
$GPGGA,144934,5926.1069,N,02450.1360,E,1,12,0.8,46.9,M,17.0,M,,*7A
$GPGSA,A,3,02,04,05,09,16,18,20,25,26,29,31,39,1.4,0.8,1.2*3A
$GPGSV,3,1,12,02,12,050,45,04,07,318,00,05,33,085,46,09,10,350,21*73
$GPGSV,3,2,12,16,19,304,35,18,37,198,40,20,03,164,29,25,30,149,44*7D
$GPGSV,3,3,12,26,45,292,37,29,76,100,47,31,31,239,25,39,14,136,32*7F
$GPGLL,5926.1069,N,02450.1360,E,144934,A,A*49
$GPBOD,,T,,M,,*47
$GPBWC,144934,,,,,,T,,M,,N,,A*74
$GPVTG,273.7,T,264.6,M,0.0,N,0.0,K,A*24
$GPXTE,A,A,,,N,A*51
$PGRME,3.3,M,4.6,M,5.6,M*2F
$PGRMZ,154,f,3*1B
$PGRMM,WGS 84*06
$HCHDG,,,,9.1,E*0F
$GPRTE,1,1,c,*37
$GPRMC,144937,A,5926.1069,N,02450.1362,E,0.0,273.7,270321,9.1,E,A*18
$GPRMB,A,,,,,,,,,,,,V,A*1C
$GPGGA,144937,5926.1069,N,02450.1362,E,1,12,0.8,47.0,M,17.0,M,,*73
$GPGSA,A,3,02,04,05,09,16,18,20,25,26,29,31,39,1.5,0.8,1.2*3B
$GPGSV,3,1,12,02,12,050,45,04,07,318,00,05,33,085,46,09,10,349,18*71
$GPGSV,3,2,12,16,19,304,34,18,37,198,40,20,03,164,29,25,30,149,45*7D
$GPGSV,3,3,12,26,45,292,37,29,76,100,47,31,31,239,00,39,14,136,33*79
$GPGLL,5926.1069,N,02450.1362,E,144937,A,A*48
$GPBOD,,T,,M,,*47
$GPBWC,144937,,,,,,T,,M,,N,,A*77
$GPVTG,273.7,T,264.6,M,0.0,N,0.0,K,A*24
$GPXTE,A,A,,,N,A*51
$PGRME,3.1,M,4.5,M,5.4,M*2C
$PGRMZ,154,f,3*1B
$PGRMM,WGS 84*06
$HCHDG,,,,9.1,E*0F
$GPRTE,1,1,c,*37
$GPRMC,144939,A,5926.1069,N,02450.1364,E,0.0,273.7,270321,9.1,E,A*10
$GPRMB,A,,,,,,,,,,,,V,A*1C
$GPGGA,144939,5926.1069,N,02450.1364,E,1,12,0.8,47.4,M,17.0,M,,*7F
$GPGSA,A,3,02,04,05,09,16,18,20,25,26,29,31,39,1.4,0.8,1.2*3A
$GPGSV,3,1,12,02,12,050,45,04,07,318,27,05,33,085,46,09,10,349,15*79
$GPGSV,3,2,12,16,19,304,34,18,37,198,40,20,03,164,29,25,30,149,45*7D
$GPGSV,3,3,12,26,45,292,37,29,76,100,47,31,31,239,00,39,14,136,32*78
$GPGLL,5926.1069,N,02450.1364,E,144939,A,A*40
$GPBOD,,T,,M,,*47
$GPBWC,144939,,,,,,T,,M,,N,,A*79
$GPVTG,273.7,T,264.6,M,0.0,N,0.0,K,A*24
$GPXTE,A,A,,,N,A*51
$PGRME,3.1,M,4.5,M,5.5,M*2D
$PGRMZ,156,f,3*19
$PGRMM,WGS 84*06
$HCHDG,,,,9.1,E*0F
$GPRTE,1,1,c,*37
$GPRMC,144941,A,5926.1070,N,02450.1367,E,0.0,273.7,270321,9.1,E,A*14
$GPRMB,A,,,,,,,,,,,,V,A*1C
$GPGGA,144941,5926.1070,N,02450.1367,E,1,12,0.8,47.8,M,17.0,M,,*77
$GPGSA,A,3,02,04,05,09,16,18,20,25,26,29,31,39,1.4,0.8,1.2*3A
$GPGSV,3,1,12,02,12,050,45,04,07,318,28,05,33,085,46,09,10,349,13*70
$GPGSV,3,2,12,16,19,304,35,18,37,198,39,20,03,164,30,25,30,149,45*7A
$GPGSV,3,3,12,26,45,292,37,29,76,100,47,31,31,239,27,39,14,136,32*7D
$GPGLL,5926.1070,N,02450.1367,E,144941,A,A*44
$GPBOD,,T,,M,,*47
$GPBWC,144941,,,,,,T,,M,,N,,A*76
$GPVTG,273.7,T,264.6,M,0.0,N,0.0,K,A*24
$GPXTE,A,A,,,N,A*51
$PGRME,3.1,M,4.5,M,5.5,M*2D
$PGRMZ,157,f,3*18
$PGRMM,WGS 84*06
$HCHDG,,,,9.1,E*0F
$GPRTE,1,1,c,*37
$GPRMC,144943,A,5926.1071,N,02450.1369,E,0.0,273.7,270321,9.1,E,A*19
$GPRMB,A,,,,,,,,,,,,V,A*1C
$GPGGA,144943,5926.1071,N,02450.1369,E,1,12,0.8,48.4,M,17.0,M,,*79
$GPGSA,A,3,02,04,05,09,16,18,20,25,26,29,31,39,1.4,0.8,1.2*3A
$GPGSV,3,1,12,02,12,050,45,04,07,318,28,05,33,085,46,09,10,349,13*70
$GPGSV,3,2,12,16,19,304,34,18,37,198,39,20,03,164,30,25,30,149,45*7B
$GPGSV,3,3,12,26,45,292,37,29,76,100,47,31,31,239,29,39,14,136,31*70
$GPGLL,5926.1071,N,02450.1369,E,144943,A,A*49
$GPBOD,,T,,M,,*47
$GPBWC,144943,,,,,,T,,M,,N,,A*74
$GPVTG,273.7,T,264.6,M,0.0,N,0.0,K,A*24
$GPXTE,A,A,,,N,A*51
$PGRME,3.1,M,4.6,M,5.5,M*2E
$PGRMZ,159,f,3*16
$PGRMM,WGS 84*06
$HCHDG,,,,9.1,E*0F
$GPRTE,1,1,c,*37
$GPRMC,144945,A,5926.1072,N,02450.1375,E,0.0,273.7,270321,9.1,E,A*11
$GPRMB,A,,,,,,,,,,,,V,A*1C
$GPGGA,144945,5926.1072,N,02450.1375,E,1,12,0.8,49.3,M,17.0,M,,*77
$GPGSA,A,3,02,04,05,09,16,18,20,25,26,29,31,39,1.4,0.8,1.2*3A
$GPGSV,3,1,12,02,12,050,45,04,07,318,29,05,33,085,46,09,10,349,14*76
$GPGSV,3,2,12,16,19,304,35,18,37,198,39,20,03,164,29,25,30,149,45*72
$GPGSV,3,3,12,26,45,292,37,29,76,100,47,31,31,239,30,39,14,136,32*7B
$GPGLL,5926.1072,N,02450.1375,E,144945,A,A*41
$GPBOD,,T,,M,,*47
$GPBWC,144945,,,,,,T,,M,,N,,A*72
$GPVTG,273.7,T,264.6,M,0.0,N,0.0,K,A*24
$GPXTE,A,A,,,N,A*51
$PGRME,3.1,M,4.4,M,5.4,M*2D
$PGRMZ,162,f,3*1E
$PGRMM,WGS 84*06
$HCHDG,,,,9.1,E*0F
$GPRTE,1,1,c,*37
$GPRMC,144948,A,5926.1071,N,02450.1388,E,0.0,273.7,270321,9.1,E,A*1D
$GPRMB,A,,,,,,,,,,,,V,A*1C
$GPGGA,144948,5926.1071,N,02450.1388,E,1,12,0.7,49.2,M,17.0,M,,*75
$GPGSA,A,3,02,04,05,09,16,18,20,25,26,29,31,39,1.4,0.7,1.2*35
$GPGSV,3,1,12,02,12,050,45,04,07,318,30,05,33,085,46,09,10,349,16*7C
$GPGSV,3,2,12,16,19,304,34,18,37,198,39,20,03,164,29,25,30,149,45*73
$GPGSV,3,3,12,26,45,292,37,29,76,100,47,31,31,239,32,39,14,136,32*79
$GPGLL,5926.1071,N,02450.1388,E,144948,A,A*4D
$GPBOD,,T,,M,,*47
$GPBWC,144948,,,,,,T,,M,,N,,A*7F
$GPVTG,273.7,T,264.6,M,0.0,N,0.0,K,A*24
$GPXTE,A,A,,,N,A*51
$PGRME,3.1,M,4.4,M,5.3,M*2A
$PGRMZ,161,f,3*1D
$PGRMM,WGS 84*06
$HCHDG,,,,9.1,E*0F
$GPRTE,1,1,c,*37
$GPRMC,144950,A,5926.1070,N,02450.1393,E,0.0,273.7,270321,9.1,E,A*1F
$GPRMB,A,,,,,,,,,,,,V,A*1C
$GPGGA,144950,5926.1070,N,02450.1393,E,1,12,0.7,49.2,M,17.0,M,,*77
$GPGSA,A,3,02,04,05,09,16,18,20,25,26,29,31,39,1.4,0.7,1.2*35
$GPGSV,3,1,12,02,12,050,45,04,07,318,30,05,33,085,45,09,10,349,16*7F
$GPGSV,3,2,12,16,19,304,34,18,37,198,40,20,03,164,29,25,30,149,45*7D
$GPGSV,3,3,12,26,45,292,37,29,76,100,47,31,31,239,32,39,14,136,32*79
$GPGLL,5926.1070,N,02450.1393,E,144950,A,A*4F
$GPBOD,,T,,M,,*47
$GPBWC,144950,,,,,,T,,M,,N,,A*76
$GPVTG,273.7,T,264.6,M,0.0,N,0.0,K,A*24
$GPXTE,A,A,,,N,A*51
$PGRME,3.1,M,4.4,M,5.4,M*2D
$PGRMZ,161,f,3*1D
$PGRMM,WGS 84*06
$HCHDG,,,,9.1,E*0F
$GPRTE,1,1,c,*37
$GPRMC,144952,A,5926.1070,N,02450.1396,E,0.0,273.7,270321,9.1,E,A*18
$GPRMB,A,,,,,,,,,,,,V,A*1C
$GPGGA,144952,5926.1070,N,02450.1396,E,1,12,0.7,49.2,M,17.0,M,,*70
$GPGSA,A,3,02,04,05,09,16,18,20,25,26,29,31,39,1.4,0.7,1.2*35
$GPGSV,3,1,12,02,12,050,45,04,07,318,30,05,33,085,45,09,10,349,17*7E
$GPGSV,3,2,12,16,19,304,34,18,37,198,40,20,03,164,28,25,30,149,45*7C
$GPGSV,3,3,12,26,45,292,37,29,76,100,47,31,31,239,32,39,14,136,31*7A
$GPGLL,5926.1070,N,02450.1396,E,144952,A,A*48
$GPBOD,,T,,M,,*47
$GPBWC,144952,,,,,,T,,M,,N,,A*74
$GPVTG,273.7,T,264.6,M,0.0,N,0.0,K,A*24
$GPXTE,A,A,,,N,A*51
$PGRME,3.1,M,4.5,M,5.4,M*2C
$PGRMZ,162,f,3*1E
$PGRMM,WGS 84*06
$HCHDG,,,,9.1,E*0F
$GPRTE,1,1,c,*37
$GPRMC,144954,A,5926.1069,N,02450.1401,E,0.0,273.7,270321,9.1,E,A*1F
$GPRMB,A,,,,,,,,,,,,V,A*1C
$GPGGA,144954,5926.1069,N,02450.1401,E,1,12,0.7,49.6,M,17.0,M,,*73
$GPGSA,A,3,02,04,05,09,16,18,20,25,26,29,31,39,1.4,0.7,1.2*35
$GPGSV,3,1,12,02,12,050,45,04,07,318,30,05,33,085,45,09,10,349,17*7E
$GPGSV,3,2,12,16,19,304,34,18,38,198,40,20,03,164,28,25,30,149,45*73
$GPGSV,3,3,12,26,45,292,37,29,76,100,47,31,31,239,32,39,14,136,32*79
$GPGLL,5926.1069,N,02450.1401,E,144954,A,A*4F
$GPBOD,,T,,M,,*47
$GPBWC,144954,,,,,,T,,M,,N,,A*72
$GPVTG,273.7,T,264.6,M,0.0,N,0.0,K,A*24
$GPXTE,A,A,,,N,A*51
$PGRME,3.1,M,4.5,M,5.5,M*2D
$PGRMZ,163,f,3*1F
$PGRMM,WGS 84*06
$HCHDG,,,,9.1,E*0F
$GPRTE,1,1,c,*37
$GPRMC,144956,A,5926.1067,N,02450.1405,E,0.0,273.7,270321,9.1,E,A*17
$GPRMB,A,,,,,,,,,,,,V,A*1C
$GPGGA,144956,5926.1067,N,02450.1405,E,1,12,0.7,50.2,M,17.0,M,,*77
$GPGSA,A,3,02,04,05,09,16,18,20,25,26,29,31,39,1.4,0.7,1.2*35
$GPGSV,3,1,12,02,12,050,45,04,07,318,29,05,33,085,46,09,10,349,18*7A
$GPGSV,3,2,12,16,19,304,34,18,38,198,40,20,03,164,29,25,30,149,45*72
$GPGSV,3,3,12,26,45,292,37,29,76,100,47,31,31,239,31,39,14,136,32*7A
$GPGLL,5926.1067,N,02450.1405,E,144956,A,A*47
$GPBOD,,T,,M,,*47
$GPBWC,144956,,,,,,T,,M,,N,,A*70
$GPVTG,273.7,T,264.6,M,0.0,N,0.0,K,A*24
$GPXTE,A,A,,,N,A*51
$PGRME,3.1,M,4.5,M,5.5,M*2D
$PGRMZ,165,f,3*19
$PGRMM,WGS 84*06
$HCHDG,,,,9.1,E*0F
$GPRTE,1,1,c,*37
$GPRMC,144958,A,5926.1064,N,02450.1408,E,0.0,273.7,270321,9.1,E,A*17
$GPRMB,A,,,,,,,,,,,,V,A*1C
$GPGGA,144958,5926.1064,N,02450.1408,E,1,12,0.7,50.1,M,17.0,M,,*74
$GPGSA,A,3,02,04,05,09,16,18,20,25,26,29,31,39,1.4,0.7,1.2*35
$GPGSV,3,1,12,02,12,050,45,04,07,318,28,05,33,085,46,09,10,349,18*7B
$GPGSV,3,2,12,16,19,304,33,18,38,198,39,20,03,164,29,25,30,149,44*7A
$GPGSV,3,3,12,26,45,292,36,29,76,100,46,31,31,239,31,39,14,136,32*7A
$GPGLL,5926.1064,N,02450.1408,E,144958,A,A*47
$GPBOD,,T,,M,,*47
$GPBWC,144958,,,,,,T,,M,,N,,A*7E
$GPVTG,273.7,T,264.6,M,0.0,N,0.0,K,A*24
$GPXTE,A,A,,,N,A*51
$PGRME,3.1,M,4.5,M,5.5,M*2D
$PGRMZ,164,f,3*18
$PGRMM,WGS 84*06
$HCHDG,,,,9.1,E*0F
$GPRTE,1,1,c,*37
$GPRMC,145000,A,5926.1061,N,02450.1409,E,0.0,273.7,270321,9.1,E,A*16
$GPRMB,A,,,,,,,,,,,,V,A*1C
$GPGGA,145000,5926.1061,N,02450.1409,E,1,12,0.7,50.5,M,17.0,M,,*71
$GPGSA,A,3,02,04,05,09,16,18,20,25,26,29,31,39,1.4,0.7,1.2*35
$GPGSV,3,1,12,02,12,050,45,04,07,318,27,05,33,085,46,09,10,349,18*74
$GPGSV,3,2,12,16,19,304,33,18,38,198,39,20,03,164,29,25,30,149,44*7A
$GPGSV,3,3,12,26,45,292,36,29,76,100,46,31,31,239,31,39,14,136,32*7A
$GPGLL,5926.1061,N,02450.1409,E,145000,A,A*46
$GPBOD,,T,,M,,*47
$GPBWC,145000,,,,,,T,,M,,N,,A*7B
$GPVTG,273.7,T,264.6,M,0.0,N,0.0,K,A*24
$GPXTE,A,A,,,N,A*51
$PGRME,3.1,M,4.6,M,5.5,M*2E
$PGRMZ,166,f,3*1A
$PGRMM,WGS 84*06
$HCHDG,,,,9.1,E*0F
$GPRTE,1,1,c,*37
$GPRMC,145002,A,5926.1058,N,02450.1410,E,0.0,273.7,270321,9.1,E,A*16
$GPRMB,A,,,,,,,,,,,,V,A*1C
$GPGGA,145002,5926.1058,N,02450.1410,E,1,12,0.7,50.8,M,17.0,M,,*7C
$GPGSA,A,3,02,04,05,09,16,18,20,25,26,29,31,39,1.4,0.7,1.2*35
$GPGSV,3,1,12,02,12,050,45,04,07,318,27,05,33,085,46,09,10,349,18*74
$GPGSV,3,2,12,16,19,304,32,18,38,198,39,20,03,164,30,25,30,149,44*73
$GPGSV,3,3,12,26,45,292,36,29,76,100,46,31,31,239,31,39,14,136,32*7A
$GPGLL,5926.1058,N,02450.1410,E,145002,A,A*46
$GPBOD,,T,,M,,*47
$GPBWC,145002,,,,,,T,,M,,N,,A*79
$GPVTG,273.7,T,264.6,M,0.0,N,0.0,K,A*24
$GPXTE,A,A,,,N,A*51
$PGRME,3.2,M,4.6,M,5.6,M*2E
$PGRMZ,167,f,3*1B
$PGRMM,WGS 84*06
$HCHDG,,,,9.1,E*0F
$GPRTE,1,1,c,*37
$GPRMC,145004,A,5926.1056,N,02450.1408,E,0.0,270.3,270321,9.1,E,A*10
$GPRMB,A,,,,,,,,,,,,V,A*1C
$GPGGA,145004,5926.1056,N,02450.1408,E,1,12,0.7,51.3,M,17.0,M,,*77
$GPGSA,A,3,02,04,05,09,16,18,20,25,26,29,31,39,1.4,0.7,1.2*35
$GPGSV,3,1,12,02,12,050,45,04,07,318,00,05,33,085,46,09,10,349,19*70
$GPGSV,3,2,12,16,19,304,32,18,38,198,39,20,03,164,30,25,30,149,44*73
$GPGSV,3,3,12,26,45,292,36,29,76,100,46,31,31,239,31,39,14,136,31*79
$GPGLL,5926.1056,N,02450.1408,E,145004,A,A*47
$GPBOD,,T,,M,,*47
$GPBWC,145004,,,,,,T,,M,,N,,A*7F
$GPVTG,270.3,T,261.2,M,0.0,N,0.0,K,A*22
$GPXTE,A,A,,,N,A*51
$PGRME,3.2,M,4.6,M,5.6,M*2E
$PGRMZ,168,f,3*14
$PGRMM,WGS 84*06
$HCHDG,,,,9.1,E*0F
$GPRTE,1,1,c,*37
$GPRMC,145006,A,5926.1055,N,02450.1409,E,0.0,270.3,270321,9.1,E,A*10
$GPRMB,A,,,,,,,,,,,,V,A*1C
$GPGGA,145006,5926.1055,N,02450.1409,E,1,12,0.8,51.7,M,17.0,M,,*7C
$GPGSA,A,3,02,04,05,09,16,18,20,25,26,29,31,39,1.4,0.8,1.2*3A
$GPGSV,3,1,12,02,12,050,45,04,07,318,00,05,33,085,46,09,10,349,19*70
$GPGSV,3,2,12,16,19,304,31,18,38,198,38,20,03,164,30,25,30,149,44*71
$GPGSV,3,3,12,26,45,292,36,29,76,100,46,31,31,239,31,39,14,136,31*79
$GPGLL,5926.1055,N,02450.1409,E,145006,A,A*47
$GPBOD,,T,,M,,*47
$GPBWC,145006,,,,,,T,,M,,N,,A*7D
$GPVTG,270.3,T,261.2,M,0.0,N,0.0,K,A*22
$GPXTE,A,A,,,N,A*51
$PGRME,3.2,M,4.7,M,5.7,M*2E
$PGRMZ,170,f,3*1D
$PGRMM,WGS 84*06
$HCHDG,,,,9.1,E*0F
$GPRTE,1,1,c,*37
$GPRMC,145008,A,5926.1054,N,02450.1409,E,0.0,270.3,270321,9.1,E,A*1F
$GPRMB,A,,,,,,,,,,,,V,A*1C
$GPGGA,145008,5926.1054,N,02450.1409,E,1,12,0.8,51.7,M,17.0,M,,*73
$GPGSA,A,3,02,04,05,09,16,18,20,25,26,29,31,39,1.4,0.8,1.2*3A
$GPGSV,3,1,12,02,12,050,45,04,07,318,00,05,33,085,46,09,10,349,19*70
$GPGSV,3,2,12,16,19,304,31,18,38,198,38,20,03,164,30,25,30,149,44*71
$GPGSV,3,3,12,26,45,292,36,29,76,100,46,31,31,239,32,39,14,136,32*79
$GPGLL,5926.1054,N,02450.1409,E,145008,A,A*48
$GPBOD,,T,,M,,*47
$GPBWC,145008,,,,,,T,,M,,N,,A*73
$GPVTG,270.3,T,261.2,M,0.0,N,0.0,K,A*22
$GPXTE,A,A,,,N,A*51
$PGRME,3.2,M,4.7,M,5.7,M*2E
$PGRMZ,170,f,3*1D
$PGRMM,WGS 84*06
$HCHDG,,,,9.1,E*0F
$GPRTE,1,1,c,*37
$GPRMC,145010,A,5926.1053,N,02450.1407,E,0.0,270.3,270321,9.1,E,A*1F
$GPRMB,A,,,,,,,,,,,,V,A*1C
$GPGGA,145010,5926.1053,N,02450.1407,E,1,12,0.8,51.8,M,17.0,M,,*7C
$GPGSA,A,3,02,04,05,09,16,18,20,25,26,29,31,39,1.4,0.8,1.2*3A
$GPGSV,3,1,12,02,12,050,45,04,07,318,00,05,33,085,47,09,10,349,19*71
$GPGSV,3,2,12,16,19,304,30,18,38,198,38,20,03,164,30,25,30,149,44*70
$GPGSV,3,3,12,26,45,291,36,29,76,100,46,31,31,239,33,39,14,136,32*7B
$GPGLL,5926.1053,N,02450.1407,E,145010,A,A*48
$GPBOD,,T,,M,,*47
$GPBWC,145010,,,,,,T,,M,,N,,A*7A
$GPVTG,270.3,T,261.2,M,0.0,N,0.0,K,A*22
$GPXTE,A,A,,,N,A*51
$PGRME,3.3,M,4.7,M,5.7,M*2F
$PGRMZ,170,f,3*1D
$PGRMM,WGS 84*06
$HCHDG,,,,9.1,E*0F
$GPRTE,1,1,c,*37
$GPRMC,145013,A,5926.1055,N,02450.1405,E,0.0,270.3,270321,9.1,E,A*18
$GPRMB,A,,,,,,,,,,,,V,A*1C
$GPGGA,145013,5926.1055,N,02450.1405,E,1,12,0.8,52.4,M,17.0,M,,*74
$GPGSA,A,3,02,04,05,09,16,18,20,25,26,29,31,39,1.4,0.8,1.2*3A
$GPGSV,3,1,12,02,12,050,45,04,07,318,00,05,33,085,47,09,10,349,19*71
$GPGSV,3,2,12,16,19,304,30,18,38,198,38,20,03,164,30,25,30,149,44*70
$GPGSV,3,3,12,26,45,291,37,29,76,100,46,31,31,239,33,39,14,136,31*79
$GPGLL,5926.1055,N,02450.1405,E,145013,A,A*4F
$GPBOD,,T,,M,,*47
$GPBWC,145013,,,,,,T,,M,,N,,A*79
$GPVTG,270.3,T,261.2,M,0.0,N,0.0,K,A*22
$GPXTE,A,A,,,N,A*51
$PGRME,3.3,M,4.6,M,5.7,M*2E
$PGRMZ,172,f,3*1F
$PGRMM,WGS 84*06
$HCHDG,,,,9.1,E*0F
$GPRTE,1,1,c,*37
$GPRMC,145015,A,5926.1056,N,02450.1401,E,0.1,275.1,270321,9.1,E,A*1F
$GPRMB,A,,,,,,,,,,,,V,A*1C
$GPGGA,145015,5926.1056,N,02450.1401,E,1,12,0.8,52.5,M,17.0,M,,*74
$GPGSA,A,3,02,04,05,09,16,18,20,25,26,29,31,39,1.4,0.8,1.2*3A
$GPGSV,3,1,12,02,12,050,45,04,07,318,00,05,33,085,47,09,10,349,18*70
$GPGSV,3,2,12,16,19,304,30,18,38,198,38,20,03,164,30,25,30,149,43*77
$GPGSV,3,3,12,26,45,291,37,29,76,099,46,31,31,239,33,39,14,136,32*7B
$GPGLL,5926.1056,N,02450.1401,E,145015,A,A*4E
$GPBOD,,T,,M,,*47
$GPBWC,145015,,,,,,T,,M,,N,,A*7F
$GPVTG,275.1,T,266.0,M,0.1,N,0.2,K,A*23
$GPXTE,A,A,,,N,A*51
$PGRME,3.3,M,4.6,M,5.7,M*2E
$PGRMZ,172,f,3*1F
$PGRMM,WGS 84*06
$HCHDG,,,,9.1,E*0F
$GPRTE,1,1,c,*37
$GPRMC,145017,A,5926.1055,N,02450.1402,E,0.0,275.1,270321,9.1,E,A*1C
$GPRMB,A,,,,,,,,,,,,V,A*1C
$GPGGA,145017,5926.1055,N,02450.1402,E,1,12,0.8,53.0,M,17.0,M,,*72
$GPGSA,A,3,02,04,05,09,16,18,20,25,26,29,31,33,1.4,0.8,1.2*30
$GPGSV,3,1,12,02,12,050,45,04,07,318,00,05,33,085,47,09,10,349,18*70
$GPGSV,3,2,12,16,19,304,30,18,38,198,37,20,03,164,30,25,30,149,43*78
$GPGSV,3,3,12,26,45,291,37,29,76,099,46,31,31,239,33,33,14,224,00*70
$GPGLL,5926.1055,N,02450.1402,E,145017,A,A*4C
$GPBOD,,T,,M,,*47
$GPBWC,145017,,,,,,T,,M,,N,,A*7D
$GPVTG,275.1,T,266.0,M,0.0,N,0.0,K,A*20
$GPXTE,A,A,,,N,A*51
$PGRME,3.3,M,4.6,M,5.6,M*2F
$PGRMZ,174,f,3*19
$PGRMM,WGS 84*06
$HCHDG,,,,9.1,E*0F
$GPRTE,1,1,c,*37
$GPRMC,145019,A,5926.1054,N,02450.1393,E,0.0,275.1,270321,9.1,E,A*1C
$GPRMB,A,,,,,,,,,,,,V,A*1C
$GPGGA,145019,5926.1054,N,02450.1393,E,1,12,0.8,52.5,M,17.0,M,,*76
$GPGSA,A,3,02,04,05,09,16,18,20,25,26,29,31,33,1.4,0.8,1.2*30
$GPGSV,3,1,12,02,12,050,45,04,07,318,00,05,33,085,47,09,10,349,19*71
$GPGSV,3,2,12,16,19,304,29,18,38,198,37,20,03,164,30,25,30,149,43*70
$GPGSV,3,3,12,26,45,291,37,29,76,099,46,31,31,238,33,33,14,224,00*71
$GPGLL,5926.1054,N,02450.1393,E,145019,A,A*4C
$GPBOD,,T,,M,,*47
$GPBWC,145019,,,,,,T,,M,,N,,A*73
$GPVTG,275.1,T,266.0,M,0.0,N,0.0,K,A*20
$GPXTE,A,A,,,N,A*51
$PGRME,3.3,M,4.5,M,5.5,M*2F
$PGRMZ,172,f,3*1F
$PGRMM,WGS 84*06
$HCHDG,,,,9.1,E*0F
$GPRTE,1,1,c,*37
$GPRMC,145021,A,5926.1053,N,02450.1389,E,0.0,275.1,270321,9.1,E,A*1B
$GPRMB,A,,,,,,,,,,,,V,A*1C
$GPGGA,145021,5926.1053,N,02450.1389,E,1,12,0.8,52.2,M,17.0,M,,*76
$GPGSA,A,3,02,04,05,09,16,18,20,25,26,29,31,33,1.4,0.8,1.2*30
$GPGSV,3,1,12,02,12,050,45,04,07,318,00,05,33,085,47,09,10,349,19*71
$GPGSV,3,2,12,16,19,304,29,18,38,198,37,20,03,164,30,25,30,149,43*70
$GPGSV,3,3,12,26,45,291,38,29,76,099,46,31,31,238,32,33,14,224,00*7F
$GPGLL,5926.1053,N,02450.1389,E,145021,A,A*4B
$GPBOD,,T,,M,,*47
$GPBWC,145021,,,,,,T,,M,,N,,A*78
$GPVTG,275.1,T,266.0,M,0.0,N,0.0,K,A*20
$GPXTE,A,A,,,N,A*51
$PGRME,3.2,M,4.4,M,5.5,M*2F
$PGRMZ,171,f,3*1C
$PGRMM,WGS 84*06
$HCHDG,,,,9.1,E*0F
$GPRTE,1,1,c,*37
$GPRMC,145024,A,5926.1053,N,02450.1387,E,0.0,275.1,270321,9.1,E,A*10
$GPRMB,A,,,,,,,,,,,,V,A*1C
$GPGGA,145024,5926.1053,N,02450.1387,E,1,12,0.8,52.2,M,17.0,M,,*7D
$GPGSA,A,3,02,04,05,09,16,18,20,25,26,29,31,33,1.4,0.8,1.2*30
$GPGSV,3,1,12,02,12,050,45,04,07,318,00,05,33,085,47,09,10,349,20*7B
$GPGSV,3,2,12,16,19,304,29,18,38,198,38,20,03,164,30,25,30,149,43*7F
$GPGSV,3,3,12,26,45,291,38,29,76,099,46,31,31,238,31,33,14,224,00*7C
$GPGLL,5926.1053,N,02450.1387,E,145024,A,A*40
$GPBOD,,T,,M,,*47
$GPBWC,145024,,,,,,T,,M,,N,,A*7D
$GPVTG,275.1,T,266.0,M,0.0,N,0.0,K,A*20
$GPXTE,A,A,,,N,A*51
$PGRME,3.3,M,4.6,M,5.6,M*2F
$PGRMZ,171,f,3*1C
$PGRMM,WGS 84*06
$HCHDG,,,,9.1,E*0F
$GPRTE,1,1,c,*37
$GPRMC,145026,A,5926.1054,N,02450.1388,E,0.0,275.1,270321,9.1,E,A*1A
$GPRMB,A,,,,,,,,,,,,V,A*1C
$GPGGA,145026,5926.1054,N,02450.1388,E,1,12,0.8,52.2,M,17.0,M,,*77
$GPGSA,A,3,02,04,05,09,16,18,20,25,26,29,31,33,1.4,0.8,1.2*30
$GPGSV,3,1,12,02,11,050,45,04,07,318,00,05,33,085,47,09,10,349,20*78
$GPGSV,3,2,12,16,19,304,28,18,38,198,38,20,03,164,30,25,30,149,42*7F
$GPGSV,3,3,12,26,45,291,38,29,76,099,46,31,31,238,30,33,14,224,00*7D
$GPGLL,5926.1054,N,02450.1388,E,145026,A,A*4A
$GPBOD,,T,,M,,*47
$GPBWC,145026,,,,,,T,,M,,N,,A*7F
$GPVTG,275.1,T,266.0,M,0.0,N,0.0,K,A*20
$GPXTE,A,A,,,N,A*51
$PGRME,3.3,M,4.6,M,5.7,M*2E
$PGRMZ,171,f,3*1C
$PGRMM,WGS 84*06
$HCHDG,,,,9.1,E*0F
$GPRTE,1,1,c,*37
$GPRMC,145028,A,5926.1054,N,02450.1390,E,0.0,275.1,270321,9.1,E,A*1D
$GPRMB,A,,,,,,,,,,,,V,A*1C
$GPGGA,145028,5926.1054,N,02450.1390,E,1,12,0.8,52.3,M,17.0,M,,*71
$GPGSA,A,3,02,04,05,09,16,18,20,25,26,29,31,33,1.4,0.8,1.2*30
$GPGSV,3,1,12,02,11,050,45,04,07,318,00,05,33,085,47,09,10,349,20*78
$GPGSV,3,2,12,16,19,304,26,18,38,198,38,20,03,164,29,25,30,149,42*79
$GPGSV,3,3,12,26,45,291,39,29,76,099,46,31,31,238,30,33,14,224,00*7C
$GPGLL,5926.1054,N,02450.1390,E,145028,A,A*4D
$GPBOD,,T,,M,,*47
$GPBWC,145028,,,,,,T,,M,,N,,A*71
$GPVTG,275.1,T,266.0,M,0.0,N,0.0,K,A*20
$GPXTE,A,A,,,N,A*51
$PGRME,3.3,M,4.7,M,5.7,M*2F
$PGRMZ,171,f,3*1C
$PGRMM,WGS 84*06
$HCHDG,,,,9.1,E*0F
$GPRTE,1,1,c,*37
$GPRMC,145030,A,5926.1053,N,02450.1389,E,0.0,275.1,270321,9.1,E,A*1B
$GPRMB,A,,,,,,,,,,,,V,A*1C
$GPGGA,145030,5926.1053,N,02450.1389,E,1,12,0.8,51.9,M,17.0,M,,*7E
$GPGSA,A,3,02,04,05,09,16,18,20,25,26,29,31,33,1.4,0.8,1.2*30
$GPGSV,3,1,12,02,11,050,45,04,07,317,00,05,33,085,47,09,10,349,20*77
$GPGSV,3,2,12,16,19,304,25,18,38,198,38,20,03,164,29,25,30,149,42*7A
$GPGSV,3,3,12,26,45,291,39,29,76,099,46,31,31,238,31,33,14,224,00*7D
$GPGLL,5926.1053,N,02450.1389,E,145030,A,A*4B
$GPBOD,,T,,M,,*47
$GPBWC,145030,,,,,,T,,M,,N,,A*78
$GPVTG,275.1,T,266.0,M,0.0,N,0.0,K,A*20
$GPXTE,A,A,,,N,A*51
$PGRME,3.3,M,4.7,M,5.7,M*2F
$PGRMZ,170,f,3*1D
$PGRMM,WGS 84*06
$HCHDG,,,,9.1,E*0F
$GPRTE,1,1,c,*37
$GPRMC,145032,A,5926.1052,N,02450.1385,E,0.0,275.1,270321,9.1,E,A*14
$GPRMB,A,,,,,,,,,,,,V,A*1C
$GPGGA,145032,5926.1052,N,02450.1385,E,1,12,0.8,51.6,M,17.0,M,,*7E
$GPGSA,A,3,02,04,05,09,16,18,20,25,26,29,31,33,1.4,0.8,1.2*30
$GPGSV,3,1,12,02,11,050,45,04,07,317,00,05,33,085,47,09,10,349,19*7D
$GPGSV,3,2,12,16,19,304,24,18,38,198,39,20,03,164,30,25,30,149,42*72
$GPGSV,3,3,12,26,45,291,38,29,76,099,46,31,31,238,31,33,14,224,00*7C
$GPGLL,5926.1052,N,02450.1385,E,145032,A,A*44
$GPBOD,,T,,M,,*47
$GPBWC,145032,,,,,,T,,M,,N,,A*7A
$GPVTG,275.1,T,266.0,M,0.0,N,0.0,K,A*20
$GPXTE,A,A,,,N,A*51
$PGRME,3.3,M,4.7,M,5.8,M*20
$PGRMZ,169,f,3*15
$PGRMM,WGS 84*06
$HCHDG,,,,9.1,E*0F
$GPRTE,1,1,c,*37
$GPRMC,145034,A,5926.1051,N,02450.1380,E,0.0,275.1,270321,9.1,E,A*14
$GPRMB,A,,,,,,,,,,,,V,A*1C
$GPGGA,145034,5926.1051,N,02450.1380,E,1,12,0.8,51.6,M,17.0,M,,*7E
$GPGSA,A,3,02,04,05,09,16,18,20,25,26,29,31,33,1.4,0.8,1.2*30
$GPGSV,3,1,12,02,11,050,45,04,07,317,00,05,33,085,47,09,10,349,19*7D
$GPGSV,3,2,12,16,19,304,24,18,38,198,39,20,03,164,30,25,30,149,42*72
$GPGSV,3,3,12,26,45,291,38,29,76,099,46,31,31,238,32,33,14,224,00*7F
$GPGLL,5926.1051,N,02450.1380,E,145034,A,A*44
$GPBOD,,T,,M,,*47
$GPBWC,145034,,,,,,T,,M,,N,,A*7C
$GPVTG,275.1,T,266.0,M,0.0,N,0.0,K,A*20
$GPXTE,A,A,,,N,A*51
$PGRME,3.3,M,4.8,M,5.8,M*2F
$PGRMZ,169,f,3*15
$PGRMM,WGS 84*06
$HCHDG,,,,9.1,E*0F
$GPRTE,1,1,c,*37
$GPRMC,145036,A,5926.1050,N,02450.1376,E,0.0,275.1,270321,9.1,E,A*1E
$GPRMB,A,,,,,,,,,,,,V,A*1C
$GPGGA,145036,5926.1050,N,02450.1376,E,1,12,0.8,51.5,M,17.0,M,,*77
$GPGSA,A,3,02,04,05,09,16,18,20,25,26,29,31,33,1.4,0.8,1.2*30
$GPGSV,3,1,12,02,11,050,45,04,07,317,00,05,33,085,47,09,10,349,20*77
$GPGSV,3,2,12,16,19,304,23,18,38,198,39,20,03,164,30,25,30,149,42*75
$GPGSV,3,3,12,26,45,291,38,29,76,099,46,31,31,238,33,33,14,224,00*7E
$GPGLL,5926.1050,N,02450.1376,E,145036,A,A*4E
$GPBOD,,T,,M,,*47
$GPBWC,145036,,,,,,T,,M,,N,,A*7E
$GPVTG,275.1,T,266.0,M,0.0,N,0.0,K,A*20
$GPXTE,A,A,,,N,A*51
$PGRME,3.3,M,4.8,M,5.8,M*2F
$PGRMZ,169,f,3*15
$PGRMM,WGS 84*06
$HCHDG,,,,9.1,E*0F
$GPRTE,1,1,c,*37
$GPRMC,145038,A,5926.1051,N,02450.1373,E,0.0,275.1,270321,9.1,E,A*14
$GPRMB,A,,,,,,,,,,,,V,A*1C
$GPGGA,145038,5926.1051,N,02450.1373,E,1,12,0.8,51.6,M,17.0,M,,*7E
$GPGSA,A,3,02,04,05,09,16,18,20,25,26,29,31,33,1.4,0.8,1.2*30
$GPGSV,3,1,12,02,11,050,45,04,07,317,00,05,33,085,47,09,10,349,20*77
$GPGSV,3,2,12,16,19,304,23,18,38,198,39,20,03,164,30,25,30,149,42*75
$GPGSV,3,3,12,26,45,291,37,29,76,099,46,31,31,238,33,33,14,224,00*71
$GPGLL,5926.1051,N,02450.1373,E,145038,A,A*44
$GPBOD,,T,,M,,*47
$GPBWC,145038,,,,,,T,,M,,N,,A*70
$GPVTG,275.1,T,266.0,M,0.0,N,0.0,K,A*20
$GPXTE,A,A,,,N,A*51
$PGRME,3.3,M,4.7,M,5.7,M*2F
$PGRMZ,169,f,3*15
$PGRMM,WGS 84*06
$HCHDG,,,,9.1,E*0F
$GPRTE,1,1,c,*37
$GPRMC,145040,A,5926.1051,N,02450.1369,E,0.0,275.1,270321,9.1,E,A*10
$GPRMB,A,,,,,,,,,,,,V,A*1C
$GPGGA,145040,5926.1051,N,02450.1369,E,1,12,0.8,50.8,M,17.0,M,,*75
$GPGSA,A,3,02,04,05,09,16,18,20,25,26,29,31,33,1.4,0.8,1.2*30
$GPGSV,3,1,12,02,11,050,44,04,07,317,00,05,33,085,47,09,10,349,20*76
$GPGSV,3,2,12,16,19,304,22,18,38,198,39,20,03,164,30,25,30,149,42*74
$GPGSV,3,3,12,26,45,291,36,29,76,099,46,31,31,238,33,33,14,224,00*70
$GPGLL,5926.1051,N,02450.1369,E,145040,A,A*40
$GPBOD,,T,,M,,*47
$GPBWC,145040,,,,,,T,,M,,N,,A*7F
$GPVTG,275.1,T,266.0,M,0.0,N,0.0,K,A*20
$GPXTE,A,A,,,N,A*51
$PGRME,3.2,M,4.5,M,5.5,M*2E
$PGRMZ,167,f,3*1B
$PGRMM,WGS 84*06
$HCHDG,,,,9.1,E*0F
$GPRTE,1,1,c,*37
$GPRMC,145042,A,5926.1051,N,02450.1361,E,0.0,275.1,270321,9.1,E,A*1A
$GPRMB,A,,,,,,,,,,,,V,A*1C
$GPGGA,145042,5926.1051,N,02450.1361,E,1,12,0.8,50.4,M,17.0,M,,*73
$GPGSA,A,3,02,04,05,09,16,18,20,25,26,29,31,33,1.4,0.8,1.2*30
$GPGSV,3,1,12,02,11,050,44,04,07,317,00,05,33,085,47,09,10,349,19*7C
$GPGSV,3,2,12,16,19,304,21,18,38,198,39,20,03,164,31,25,30,149,42*76
$GPGSV,3,3,12,26,45,291,36,29,76,099,46,31,31,238,33,33,14,224,00*70
$GPGLL,5926.1051,N,02450.1361,E,145042,A,A*4A
$GPBOD,,T,,M,,*47
$GPBWC,145042,,,,,,T,,M,,N,,A*7D
$GPVTG,275.1,T,266.0,M,0.0,N,0.0,K,A*20
$GPXTE,A,A,,,N,A*51
$PGRME,3.2,M,4.5,M,5.5,M*2E
$PGRMZ,165,f,3*19
$PGRMM,WGS 84*06
$HCHDG,,,,9.1,E*0F
$GPRTE,1,1,c,*37
$GPRMC,145044,A,5926.1050,N,02450.1358,E,0.0,275.1,270321,9.1,E,A*17
$GPRMB,A,,,,,,,,,,,,V,A*1C
$GPGGA,145044,5926.1050,N,02450.1358,E,1,12,0.8,50.3,M,17.0,M,,*79
$GPGSA,A,3,02,04,05,09,16,18,20,25,26,29,31,33,1.6,0.8,1.3*33
$GPGSV,3,1,12,02,11,050,44,04,07,317,00,05,33,085,48,09,10,349,00*7B
$GPGSV,3,2,12,16,19,304,21,18,38,198,39,20,03,164,31,25,30,149,41*75
$GPGSV,3,3,12,26,45,291,36,29,76,099,46,31,31,238,34,33,14,224,00*77
$GPGLL,5926.1050,N,02450.1358,E,145044,A,A*47
$GPBOD,,T,,M,,*47
$GPBWC,145044,,,,,,T,,M,,N,,A*7B
$GPVTG,275.1,T,266.0,M,0.0,N,0.0,K,A*20
$GPXTE,A,A,,,N,A*51
$PGRME,3.2,M,4.6,M,5.6,M*2E
$PGRMZ,165,f,3*19
$PGRMM,WGS 84*06
$HCHDG,,,,9.1,E*0F
